[
    {
        "stationid": "M2HATS_IS",
        "name": "",
        "lat": 38.04106,
        "lon": -117.08788,
        "src": "BUFR"
    },
    {
        "stationid": "ATGU3FT",
        "name": "",
        "lat": 64.36923,
        "lon": -12.21012,
        "src": "BUFR"
    },
    {
        "stationid": "9ZT9MRK",
        "name": "",
        "lat": 61.73236,
        "lon": -49.77974,
        "src": "BUFR"
    },
    {
        "stationid": "UXK5JTU",
        "name": "",
        "lat": 41.6654,
        "lon": -28.71964,
        "src": "BUFR"
    },
    {
        "stationid": "03005",
        "name": "Lerwick, United Kingdom",
        "lat": 60.13934,
        "lon": -1.18513,
        "src": "BUFR"
    },
    {
        "stationid": "03238",
        "name": "Albemarle, United Kingdom",
        "lat": 55.01921,
        "lon": -1.87842,
        "src": "BUFR"
    },
    {
        "stationid": "03354",
        "name": "Nottingham, United Kingdom",
        "lat": 53.00567,
        "lon": -1.25023,
        "src": "BUFR"
    },
    {
        "stationid": "03808",
        "name": "Camborne, United Kingdom",
        "lat": 50.22121,
        "lon": 5.2523,
        "src": "BUFR"
    },
    {
        "stationid": "03882",
        "name": "",
        "lat": 50.891,
        "lon": 0.31655,
        "src": "BUFR"
    },
    {
        "stationid": "03918",
        "name": "Castor Bay, United Kingdom",
        "lat": 54.50297,
        "lon": -6.34312,
        "src": "BUFR"
    },
    {
        "stationid": "04018",
        "name": "Keflavikurflugvollur, Iceland",
        "lat": 63.96869,
        "lon": -22.61412,
        "src": "BUFR"
    },
    {
        "stationid": "04417",
        "name": "Geosummit, Greenland",
        "lat": 72.57974,
        "lon": -38.46037,
        "src": "BUFR"
    },
    {
        "stationid": "06260",
        "name": "De Bilt, Netherlands",
        "lat": 52.1,
        "lon": 5.177,
        "src": "BUFR"
    },
    {
        "stationid": "10035",
        "name": "Schleswig, Germany",
        "lat": 54.52727,
        "lon": 9.54946,
        "src": "BUFR"
    },
    {
        "stationid": "10113",
        "name": "Norderney, Germany",
        "lat": 53.71201,
        "lon": 7.1516,
        "src": "BUFR"
    },
    {
        "stationid": "10184",
        "name": "Greifswald, Germany",
        "lat": 54.09695,
        "lon": 13.40484,
        "src": "BUFR"
    },
    {
        "stationid": "10393",
        "name": "Lindenberg, Germany",
        "lat": 52.2093,
        "lon": 14.12041,
        "src": "BUFR"
    },
    {
        "stationid": "10410",
        "name": "Essen, Germany",
        "lat": 51.40412,
        "lon": 6.96818,
        "src": "BUFR"
    },
    {
        "stationid": "10548",
        "name": "Meiningen, Germany",
        "lat": 50.56175,
        "lon": 10.37709,
        "src": "BUFR"
    },
    {
        "stationid": "10739",
        "name": "Stuttgart/Schnarrenberg, Germany",
        "lat": 48.8281,
        "lon": 9.2006,
        "src": "BUFR"
    },
    {
        "stationid": "10868",
        "name": "Muenchen-Oberschleissheim, Germany",
        "lat": 48.2446,
        "lon": 11.55257,
        "src": "BUFR"
    },
    {
        "stationid": "11520",
        "name": "Praha-Libus, Czech Republic",
        "lat": 50.0078,
        "lon": 14.4469,
        "src": "BUFR"
    },
    {
        "stationid": "16045",
        "name": "Rivolto, Italy",
        "lat": 45.98158,
        "lon": 13.04742,
        "src": "BUFR"
    },
    {
        "stationid": "16144",
        "name": "S. Pietro Capofiume Molinella (Bologna), Italy",
        "lat": 44.6543,
        "lon": 11.6231,
        "src": "BUFR"
    },
    {
        "stationid": "16332",
        "name": "Galatina, Italy",
        "lat": 40.23864,
        "lon": 18.13924,
        "src": "BUFR"
    },
    {
        "stationid": "16546",
        "name": "Decimonannu, Italy",
        "lat": 39.34434,
        "lon": 8.96427,
        "src": "BUFR"
    },
    {
        "stationid": "40179",
        "name": "Bet Dagan, Israel",
        "lat": 32.007,
        "lon": 34.8149,
        "src": "BUFR"
    },
    {
        "stationid": "70026",
        "name": "Barrow/W. Post W. Rogers, United States Of America",
        "lat": 71.32261,
        "lon": -156.61778,
        "src": "BUFR"
    },
    {
        "stationid": "70133",
        "name": "Kotzebue, Ralph Wien, United States Of America",
        "lat": 66.88704,
        "lon": -162.61216,
        "src": "BUFR"
    },
    {
        "stationid": "70200",
        "name": "Nome, Ak, United States Of America",
        "lat": 64.50732,
        "lon": -165.43431,
        "src": "BUFR"
    },
    {
        "stationid": "70219",
        "name": "Bethel/Bethel Airport, Ak, United States Of America",
        "lat": 60.78511,
        "lon": -161.84011,
        "src": "BUFR"
    },
    {
        "stationid": "70231",
        "name": "Mcgrath, Ak, United States Of America",
        "lat": 62.95537,
        "lon": -155.60059,
        "src": "BUFR"
    },
    {
        "stationid": "70308",
        "name": "St. Paul Islands, Ak, United States Of America",
        "lat": 57.15604,
        "lon": -170.21957,
        "src": "BUFR"
    },
    {
        "stationid": "70316",
        "name": "Cold Bay, Ak, United States Of America",
        "lat": 55.21241,
        "lon": -162.7237,
        "src": "BUFR"
    },
    {
        "stationid": "70326",
        "name": "King Salmon, Ak, United States Of America",
        "lat": 58.67937,
        "lon": -156.66883,
        "src": "BUFR"
    },
    {
        "stationid": "70361",
        "name": "Yakutat, Ak, United States Of America",
        "lat": 59.51081,
        "lon": -139.67191,
        "src": "BUFR"
    },
    {
        "stationid": "70398",
        "name": "Annette Island, Ak, United States Of America",
        "lat": 55.04509,
        "lon": -131.58743,
        "src": "BUFR"
    },
    {
        "stationid": "72261",
        "name": "Del Rio/Int., Tx., United States Of America",
        "lat": 29.37437,
        "lon": -100.91788,
        "src": "BUFR"
    },
    {
        "stationid": "72694",
        "name": "Salem/Mcnary, Or., United States Of America",
        "lat": 44.90955,
        "lon": -123.00944,
        "src": "BUFR"
    },
    {
        "stationid": "89611",
        "name": "Casey, Stations Operated By Australia",
        "lat": -66.2827,
        "lon": 110.5234,
        "src": "BUFR"
    },
    {
        "stationid": "93417",
        "name": "Paraparaumu Aerodrome, New Zealand",
        "lat": -40.90472,
        "lon": 174.98413,
        "src": "BUFR"
    },
    {
        "stationid": "93844",
        "name": "Invercargill Aerodrome, New Zealand",
        "lat": -46.41797,
        "lon": 168.33046,
        "src": "BUFR"
    },
    {
        "stationid": "94001",
        "name": "Barmaryee, Australia",
        "lat": -23.1257,
        "lon": 150.70218,
        "src": "BUFR"
    },
    {
        "stationid": "94120",
        "name": "Darwin Airport, Australia",
        "lat": -12.4242,
        "lon": 130.8925,
        "src": "BUFR"
    },
    {
        "stationid": "94170",
        "name": "Weipa Aero, Australia",
        "lat": -12.6776,
        "lon": 141.9206,
        "src": "BUFR"
    },
    {
        "stationid": "94203",
        "name": "Broome Airport, Australia",
        "lat": -17.94785,
        "lon": 122.23503,
        "src": "BUFR"
    },
    {
        "stationid": "94299",
        "name": "Willis Island, Australia",
        "lat": -16.2878,
        "lon": 149.9652,
        "src": "BUFR"
    },
    {
        "stationid": "94302",
        "name": "Learmonth Airport, Australia",
        "lat": -22.2412,
        "lon": 114.097,
        "src": "BUFR"
    },
    {
        "stationid": "94312",
        "name": "Port Hedland Airport, Australia",
        "lat": -20.37229,
        "lon": 118.63217,
        "src": "BUFR"
    },
    {
        "stationid": "94326",
        "name": "Alice Springs Airport, Australia",
        "lat": -23.7951,
        "lon": 133.889,
        "src": "BUFR"
    },
    {
        "stationid": "94403",
        "name": "Geraldton Airport, Australia",
        "lat": -28.80434,
        "lon": 114.69747,
        "src": "BUFR"
    },
    {
        "stationid": "94461",
        "name": "Giles Meteorological Office, Australia",
        "lat": -25.0342,
        "lon": 128.3011,
        "src": "BUFR"
    },
    {
        "stationid": "94510",
        "name": "Charleville Aero, Australia",
        "lat": -26.41386,
        "lon": 146.25657,
        "src": "BUFR"
    },
    {
        "stationid": "94578",
        "name": "Brisbane Aero, Australia",
        "lat": -27.3917,
        "lon": 153.1292,
        "src": "BUFR"
    },
    {
        "stationid": "94610",
        "name": "Perth Airport, Australia",
        "lat": -31.9275,
        "lon": 115.9764,
        "src": "BUFR"
    },
    {
        "stationid": "94638",
        "name": "Esperance, Australia",
        "lat": -33.83006,
        "lon": 121.89204,
        "src": "BUFR"
    },
    {
        "stationid": "94659",
        "name": "Woomera Aerodrome, Australia",
        "lat": -31.1562,
        "lon": 136.8049,
        "src": "BUFR"
    },
    {
        "stationid": "94672",
        "name": "Adelaide Airport, Australia",
        "lat": -34.9524,
        "lon": 138.5204,
        "src": "BUFR"
    },
    {
        "stationid": "94776",
        "name": "Williamtown Raaf, Australia",
        "lat": -32.7931,
        "lon": 151.8364,
        "src": "BUFR"
    },
    {
        "stationid": "94802",
        "name": "Albany Airport, Australia",
        "lat": -34.94128,
        "lon": 117.81643,
        "src": "BUFR"
    },
    {
        "stationid": "94866",
        "name": "Melbourne Airport, Australia",
        "lat": -37.67,
        "lon": 144.83,
        "src": "BUFR"
    },
    {
        "stationid": "94910",
        "name": "Wagga Wagga Amo, Australia",
        "lat": -35.15792,
        "lon": 147.45671,
        "src": "BUFR"
    },
    {
        "stationid": "94975",
        "name": "Hobart Airport, Australia",
        "lat": -42.8389,
        "lon": 147.5033,
        "src": "BUFR"
    },
    {
        "stationid": "94995",
        "name": "Lord Howe Island Aero, Australia (Additional Islands)",
        "lat": 10.18716,
        "lon": 159.07854,
        "src": "BUFR"
    },
    {
        "stationid": "94996",
        "name": "Norfolk Island Aero, Australia (Additional Islands)",
        "lat": -29.0389,
        "lon": 167.94,
        "src": "BUFR"
    },
    {
        "stationid": "94998",
        "name": "Macquarie Island, Australia (Additional Islands)",
        "lat": -54.4994,
        "lon": 158.9369,
        "src": "BUFR"
    },
    {
        "stationid": "95282",
        "name": "Woodstock, Australia",
        "lat": -19.63368,
        "lon": 146.85699,
        "src": "BUFR"
    },
    {
        "stationid": "95527",
        "name": "Moree Aero, Australia",
        "lat": -29.49048,
        "lon": 149.84702,
        "src": "BUFR"
    },
    {
        "stationid": "96996",
        "name": "Cocos Island Aero, Islands",
        "lat": -12.18877,
        "lon": 96.83446,
        "src": "BUFR"
    },
    {
        "stationid": "65344",
        "name": "Cotonou, Benin",
        "lat": 6.35671,
        "lon": 2.38818,
        "src": "BUFR"
    },
    {
        "stationid": "43333",
        "name": "Port Blair, India (Stations South Of Latitude 20~N)",
        "lat": 11.65589,
        "lon": 92.7439,
        "src": "BUFR"
    },
    {
        "stationid": "42971",
        "name": "Bhubaneswar, India (Stations North Of Latitude 20~N)",
        "lat": 20.25149,
        "lon": 85.81971,
        "src": "BUFR"
    },
    {
        "stationid": "43150",
        "name": "Cwc Vishakhapatnam/Waltair, India (Stations South Of Latitude 20~N)",
        "lat": 17.72212,
        "lon": 83.3294,
        "src": "BUFR"
    },
    {
        "stationid": "43371",
        "name": "Thiruvananthapuram, India (Stations South Of Latitude 20~N)",
        "lat": 8.50767,
        "lon": 76.9577,
        "src": "BUFR"
    },
    {
        "stationid": "01001",
        "name": "Jan Mayen, Norway",
        "lat": 70.93958,
        "lon": -8.66919,
        "src": "BUFR"
    },
    {
        "stationid": "01010",
        "name": "Andoya, Norway",
        "lat": 69.31522,
        "lon": 16.13091,
        "src": "BUFR"
    },
    {
        "stationid": "01028",
        "name": "Bjornoya, Norway",
        "lat": 74.50341,
        "lon": 19.00339,
        "src": "BUFR"
    },
    {
        "stationid": "01241",
        "name": "Orland, Norway",
        "lat": 63.70539,
        "lon": 9.61207,
        "src": "BUFR"
    },
    {
        "stationid": "01400",
        "name": "Ekofisk, Norway",
        "lat": 56.54264,
        "lon": 3.22379,
        "src": "BUFR"
    },
    {
        "stationid": "01415",
        "name": "Stavanger, Norway",
        "lat": 58.87423,
        "lon": 5.66505,
        "src": "BUFR"
    },
    {
        "stationid": "02365",
        "name": "Sundsvall Harnosand, Sweden",
        "lat": 62.53176,
        "lon": 17.43608,
        "src": "BUFR"
    },
    {
        "stationid": "02591",
        "name": "Visby, Sweden",
        "lat": 57.67083,
        "lon": 18.34531,
        "src": "BUFR"
    },
    {
        "stationid": "02836",
        "name": "Sodankyla, Finland",
        "lat": 67.36632,
        "lon": 26.63125,
        "src": "BUFR"
    },
    {
        "stationid": "02963",
        "name": "Jokioinen, Finland",
        "lat": 60.81461,
        "lon": 23.4987,
        "src": "BUFR"
    },
    {
        "stationid": "04220",
        "name": "Aasiaat, Greenland",
        "lat": 68.70844,
        "lon": -52.85246,
        "src": "BUFR"
    },
    {
        "stationid": "04270",
        "name": "Narsarsuaq, Greenland",
        "lat": 61.15801,
        "lon": -45.44026,
        "src": "BUFR"
    },
    {
        "stationid": "04320",
        "name": "Danmarkshavn, Greenland",
        "lat": 76.76918,
        "lon": -18.6698,
        "src": "BUFR"
    },
    {
        "stationid": "04339",
        "name": "Ittoqqortoormiit, Greenland",
        "lat": 70.48458,
        "lon": -21.95147,
        "src": "BUFR"
    },
    {
        "stationid": "04360",
        "name": "Tasiilaq (Ammassalik), Greenland",
        "lat": 65.61093,
        "lon": -37.63654,
        "src": "BUFR"
    },
    {
        "stationid": "06610",
        "name": "Payern, Switzerland",
        "lat": 46.8125,
        "lon": 6.94333,
        "src": "BUFR"
    },
    {
        "stationid": "07145",
        "name": "Trappes, France",
        "lat": 48.77288,
        "lon": 2.01219,
        "src": "BUFR"
    },
    {
        "stationid": "07510",
        "name": "Bordeaux Merignac, France",
        "lat": 44.83093,
        "lon": -0.69082,
        "src": "BUFR"
    },
    {
        "stationid": "07761",
        "name": "Ajaccio, France",
        "lat": 41.91793,
        "lon": 8.79209,
        "src": "BUFR"
    },
    {
        "stationid": "08023",
        "name": "Santander, Spain",
        "lat": 43.49122,
        "lon": -3.80079,
        "src": "BUFR"
    },
    {
        "stationid": "08430",
        "name": "Murcia, Spain",
        "lat": 38.00219,
        "lon": -1.17116,
        "src": "BUFR"
    },
    {
        "stationid": "08536",
        "name": "Lisboa, Portugal",
        "lat": 38.77604,
        "lon": -9.12557,
        "src": "BUFR"
    },
    {
        "stationid": "10238",
        "name": "Bergen, Germany",
        "lat": 52.8152,
        "lon": 9.9247,
        "src": "BUFR"
    },
    {
        "stationid": "10618",
        "name": "Idar-Oberstein, Germany",
        "lat": 49.69246,
        "lon": 7.3259,
        "src": "BUFR"
    },
    {
        "stationid": "10771",
        "name": "Kuemmersbruck, Germany",
        "lat": 49.4283,
        "lon": 11.9016,
        "src": "BUFR"
    },
    {
        "stationid": "11035",
        "name": "Wien/Hohe Warte, Austria",
        "lat": 48.24895,
        "lon": 16.35718,
        "src": "BUFR"
    },
    {
        "stationid": "11747",
        "name": "Prostejov, Czech Republic",
        "lat": 49.4525,
        "lon": 17.1347,
        "src": "BUFR"
    },
    {
        "stationid": "12120",
        "name": "Leba, Poland",
        "lat": 54.75423,
        "lon": 17.53658,
        "src": "BUFR"
    },
    {
        "stationid": "12425",
        "name": "Wroclaw I, Poland",
        "lat": 51.11371,
        "lon": 16.88226,
        "src": "BUFR"
    },
    {
        "stationid": "12575",
        "name": "Tarnow, Poland",
        "lat": 50.02739,
        "lon": 20.93512,
        "src": "BUFR"
    },
    {
        "stationid": "13275",
        "name": "Beograd/Kosutnjak, Serbia",
        "lat": 44.771,
        "lon": 20.425,
        "src": "BUFR"
    },
    {
        "stationid": "14240",
        "name": "Zagreb/Maksimir, Croatia",
        "lat": 45.82123,
        "lon": 16.03383,
        "src": "BUFR"
    },
    {
        "stationid": "16754",
        "name": "Heraklion (Airport), Greece",
        "lat": 35.33553,
        "lon": 25.18189,
        "src": "BUFR"
    },
    {
        "stationid": "20292",
        "name": "Gmo Im.E.K. Fedorova, Russian Federation (In Asia)",
        "lat": 77.71306,
        "lon": 104.29194,
        "src": "BUFR"
    },
    {
        "stationid": "45004",
        "name": "Kowloon, Hong Kong, China",
        "lat": 22.31153,
        "lon": 114.17274,
        "src": "BUFR"
    },
    {
        "stationid": "47102",
        "name": "Baengnyeongdo, Republic Of Korea",
        "lat": 37.97435,
        "lon": 124.71178,
        "src": "BUFR"
    },
    {
        "stationid": "47104",
        "name": "Bukgangneung, Republic Of Korea",
        "lat": 37.80467,
        "lon": 128.85437,
        "src": "BUFR"
    },
    {
        "stationid": "47138",
        "name": "Pohang, Republic Of Korea",
        "lat": 36.03179,
        "lon": 129.38023,
        "src": "BUFR"
    },
    {
        "stationid": "47155",
        "name": "Changwon, Republic Of Korea",
        "lat": 35.1699,
        "lon": 128.57274,
        "src": "BUFR"
    },
    {
        "stationid": "47169",
        "name": "Heuksando, Republic Of Korea",
        "lat": 34.68707,
        "lon": 125.45106,
        "src": "BUFR"
    },
    {
        "stationid": "47186",
        "name": "National Typhoon Centre, Republic Of Korea",
        "lat": 33.33035,
        "lon": 126.67955,
        "src": "BUFR"
    },
    {
        "stationid": "47230",
        "name": "Incheon, Korea, Democratic People'S Republic Of",
        "lat": 37.26342,
        "lon": 126.10238,
        "src": "BUFR"
    },
    {
        "stationid": "48657",
        "name": "Kuantan, Malaysia (Peninsular Malaysia)",
        "lat": 3.77219,
        "lon": 103.21188,
        "src": "BUFR"
    },
    {
        "stationid": "50527",
        "name": "Hailar, China",
        "lat": 49.25,
        "lon": 119.7,
        "src": "BUFR"
    },
    {
        "stationid": "50557",
        "name": "Nenjiang, China",
        "lat": 49.17,
        "lon": 125.23,
        "src": "BUFR"
    },
    {
        "stationid": "50774",
        "name": "Yichun, China",
        "lat": 47.72,
        "lon": 128.83,
        "src": "BUFR"
    },
    {
        "stationid": "50953",
        "name": "Harbin, China",
        "lat": 45.93,
        "lon": 126.57,
        "src": "BUFR"
    },
    {
        "stationid": "51076",
        "name": "Altay, China",
        "lat": 47.73,
        "lon": 88.08,
        "src": "BUFR"
    },
    {
        "stationid": "51431",
        "name": "Yining, China",
        "lat": 43.95,
        "lon": 81.33,
        "src": "BUFR"
    },
    {
        "stationid": "51463",
        "name": "Wu Lu Mu Qi, China",
        "lat": 43.78,
        "lon": 87.62,
        "src": "BUFR"
    },
    {
        "stationid": "51644",
        "name": "Kuqa, China",
        "lat": 41.72,
        "lon": 82.95,
        "src": "BUFR"
    },
    {
        "stationid": "51709",
        "name": "Kashi, China",
        "lat": 39.48,
        "lon": 75.75,
        "src": "BUFR"
    },
    {
        "stationid": "51777",
        "name": "Ruoqiang, China",
        "lat": 39.03,
        "lon": 88.17,
        "src": "BUFR"
    },
    {
        "stationid": "51828",
        "name": "Hotan, China",
        "lat": 37.13,
        "lon": 79.93,
        "src": "BUFR"
    },
    {
        "stationid": "51839",
        "name": "Minfeng, China",
        "lat": 37.07,
        "lon": 82.72,
        "src": "BUFR"
    },
    {
        "stationid": "52203",
        "name": "Hami, China",
        "lat": 42.82,
        "lon": 93.52,
        "src": "BUFR"
    },
    {
        "stationid": "52267",
        "name": "Ejin Qi, China",
        "lat": 41.95,
        "lon": 101.07,
        "src": "BUFR"
    },
    {
        "stationid": "52323",
        "name": "Mazong Shan, China",
        "lat": 41.8,
        "lon": 97.03,
        "src": "BUFR"
    },
    {
        "stationid": "52418",
        "name": "Dunhuang, China",
        "lat": 40.15,
        "lon": 94.68,
        "src": "BUFR"
    },
    {
        "stationid": "52533",
        "name": "Jiuquan, China",
        "lat": 39.77,
        "lon": 98.48,
        "src": "BUFR"
    },
    {
        "stationid": "52681",
        "name": "Minqin, China",
        "lat": 38.63,
        "lon": 103.08,
        "src": "BUFR"
    },
    {
        "stationid": "52818",
        "name": "Golmud, China",
        "lat": 36.42,
        "lon": 94.9,
        "src": "BUFR"
    },
    {
        "stationid": "52836",
        "name": "Dulan, China",
        "lat": 36.3,
        "lon": 98.1,
        "src": "BUFR"
    },
    {
        "stationid": "52866",
        "name": "Xining, China",
        "lat": 36.65,
        "lon": 101.72,
        "src": "BUFR"
    },
    {
        "stationid": "52983",
        "name": "Yuzhong, China",
        "lat": 35.87,
        "lon": 104.15,
        "src": "BUFR"
    },
    {
        "stationid": "53068",
        "name": "Erenhot, China",
        "lat": 43.63,
        "lon": 111.95,
        "src": "BUFR"
    },
    {
        "stationid": "53463",
        "name": "Hohhot, China",
        "lat": 40.85,
        "lon": 111.57,
        "src": "BUFR"
    },
    {
        "stationid": "53513",
        "name": "Linhe, China",
        "lat": 40.73,
        "lon": 107.37,
        "src": "BUFR"
    },
    {
        "stationid": "53614",
        "name": "Yinchuan, China",
        "lat": 38.47,
        "lon": 106.2,
        "src": "BUFR"
    },
    {
        "stationid": "53772",
        "name": "Taiyuan, China",
        "lat": 37.62,
        "lon": 106.2,
        "src": "BUFR"
    },
    {
        "stationid": "53845",
        "name": "Yan An, China",
        "lat": 36.57,
        "lon": 109.45,
        "src": "BUFR"
    },
    {
        "stationid": "53915",
        "name": "Pingliang, China",
        "lat": 35.53,
        "lon": 106.67,
        "src": "BUFR"
    },
    {
        "stationid": "54102",
        "name": "Xilin Hot, China",
        "lat": 43.95,
        "lon": 116.12,
        "src": "BUFR"
    },
    {
        "stationid": "54135",
        "name": "Tongliao, China",
        "lat": 43.6,
        "lon": 122.27,
        "src": "BUFR"
    },
    {
        "stationid": "54161",
        "name": "Changchun, China",
        "lat": 43.9,
        "lon": 125.22,
        "src": "BUFR"
    },
    {
        "stationid": "54218",
        "name": "Chifeng, China",
        "lat": 42.3,
        "lon": 118.83,
        "src": "BUFR"
    },
    {
        "stationid": "54292",
        "name": "Yanji, China",
        "lat": 42.87,
        "lon": 129.5,
        "src": "BUFR"
    },
    {
        "stationid": "54374",
        "name": "Linjiang, China",
        "lat": 41.8,
        "lon": 126.88,
        "src": "BUFR"
    },
    {
        "stationid": "54511",
        "name": "Beijing, China",
        "lat": 39.93,
        "lon": 116.28,
        "src": "BUFR"
    },
    {
        "stationid": "54662",
        "name": "Dalian, China",
        "lat": 38.9,
        "lon": 121.63,
        "src": "BUFR"
    },
    {
        "stationid": "54727",
        "name": "Zhangqiu, China",
        "lat": 36.65,
        "lon": 117.5,
        "src": "BUFR"
    },
    {
        "stationid": "54857",
        "name": "Qingdao, China",
        "lat": 36.07,
        "lon": 120.33,
        "src": "BUFR"
    },
    {
        "stationid": "55299",
        "name": "Nagqu, China",
        "lat": 31.48,
        "lon": 92.07,
        "src": "BUFR"
    },
    {
        "stationid": "55591",
        "name": "Lhasa, China",
        "lat": 29.67,
        "lon": 91.13,
        "src": "BUFR"
    },
    {
        "stationid": "56029",
        "name": "Yushu, China",
        "lat": 33.0,
        "lon": 96.95,
        "src": "BUFR"
    },
    {
        "stationid": "56080",
        "name": "Hezuo, China",
        "lat": 35.0,
        "lon": 102.9,
        "src": "BUFR"
    },
    {
        "stationid": "56137",
        "name": "Qamdo, China",
        "lat": 31.15,
        "lon": 97.17,
        "src": "BUFR"
    },
    {
        "stationid": "56146",
        "name": "Garze, China",
        "lat": 31.62,
        "lon": 100.0,
        "src": "BUFR"
    },
    {
        "stationid": "56571",
        "name": "Xichang, China",
        "lat": 27.9,
        "lon": 102.27,
        "src": "BUFR"
    },
    {
        "stationid": "56691",
        "name": "Weining, China",
        "lat": 26.87,
        "lon": 104.28,
        "src": "BUFR"
    },
    {
        "stationid": "56739",
        "name": "Tengchong, China",
        "lat": 24.98,
        "lon": 98.51,
        "src": "BUFR"
    },
    {
        "stationid": "56778",
        "name": "Kunming, China",
        "lat": 25.02,
        "lon": 102.68,
        "src": "BUFR"
    },
    {
        "stationid": "56964",
        "name": "Simao, China",
        "lat": 22.77,
        "lon": 100.98,
        "src": "BUFR"
    },
    {
        "stationid": "56985",
        "name": "Mengzi, China",
        "lat": 23.44,
        "lon": 103.33,
        "src": "BUFR"
    },
    {
        "stationid": "57083",
        "name": "Zhengzhou, China",
        "lat": 34.72,
        "lon": 113.65,
        "src": "BUFR"
    },
    {
        "stationid": "57127",
        "name": "Hanzhong, China",
        "lat": 33.07,
        "lon": 107.03,
        "src": "BUFR"
    },
    {
        "stationid": "57131",
        "name": "Jinjhe, China",
        "lat": 34.43,
        "lon": 108.97,
        "src": "BUFR"
    },
    {
        "stationid": "57178",
        "name": "Nanyang, China",
        "lat": 33.1,
        "lon": 112.48,
        "src": "BUFR"
    },
    {
        "stationid": "57461",
        "name": "Yichang, China",
        "lat": 30.73,
        "lon": 111.37,
        "src": "BUFR"
    },
    {
        "stationid": "57494",
        "name": "Wuhan, China",
        "lat": 30.6,
        "lon": 114.05,
        "src": "BUFR"
    },
    {
        "stationid": "57516",
        "name": "Chongqing, China",
        "lat": 29.6,
        "lon": 106.4,
        "src": "BUFR"
    },
    {
        "stationid": "57541",
        "name": "Zhushan, China",
        "lat": 29.99,
        "lon": 109.47,
        "src": "BUFR"
    },
    {
        "stationid": "57687",
        "name": "Changsha, China",
        "lat": 28.11,
        "lon": 112.79,
        "src": "BUFR"
    },
    {
        "stationid": "57749",
        "name": "Huaihua, China",
        "lat": 27.57,
        "lon": 110.0,
        "src": "BUFR"
    },
    {
        "stationid": "57816",
        "name": "Guiyang, China",
        "lat": 26.48,
        "lon": 106.65,
        "src": "BUFR"
    },
    {
        "stationid": "57957",
        "name": "Guilin, China",
        "lat": 25.33,
        "lon": 110.3,
        "src": "BUFR"
    },
    {
        "stationid": "57972",
        "name": "Chenzhou, China",
        "lat": 25.74,
        "lon": 112.97,
        "src": "BUFR"
    },
    {
        "stationid": "57993",
        "name": "Ganzhou, China",
        "lat": 25.87,
        "lon": 115.0,
        "src": "BUFR"
    },
    {
        "stationid": "58027",
        "name": "Xuzhou, China",
        "lat": 34.28,
        "lon": 117.15,
        "src": "BUFR"
    },
    {
        "stationid": "58150",
        "name": "Sheyang, China",
        "lat": 33.75,
        "lon": 120.3,
        "src": "BUFR"
    },
    {
        "stationid": "58203",
        "name": "Fuyang, China",
        "lat": 32.87,
        "lon": 115.73,
        "src": "BUFR"
    },
    {
        "stationid": "58238",
        "name": "Nanjing, China",
        "lat": 31.93,
        "lon": 118.9,
        "src": "BUFR"
    },
    {
        "stationid": "58362",
        "name": "Shanghai, China",
        "lat": 31.42,
        "lon": 121.45,
        "src": "BUFR"
    },
    {
        "stationid": "58424",
        "name": "Anqing, China",
        "lat": 30.62,
        "lon": 116.97,
        "src": "BUFR"
    },
    {
        "stationid": "58457",
        "name": "Hangzhou, China",
        "lat": 30.23,
        "lon": 120.17,
        "src": "BUFR"
    },
    {
        "stationid": "58606",
        "name": "Nanchang, China",
        "lat": 28.6,
        "lon": 115.92,
        "src": "BUFR"
    },
    {
        "stationid": "58633",
        "name": "Qu Xian, China",
        "lat": 28.97,
        "lon": 118.87,
        "src": "BUFR"
    },
    {
        "stationid": "58665",
        "name": "Hongjia, China",
        "lat": 28.62,
        "lon": 121.42,
        "src": "BUFR"
    },
    {
        "stationid": "58725",
        "name": "Shaowu, China",
        "lat": 27.33,
        "lon": 117.47,
        "src": "BUFR"
    },
    {
        "stationid": "58847",
        "name": "Fuzhou, China",
        "lat": 26.08,
        "lon": 119.28,
        "src": "BUFR"
    },
    {
        "stationid": "59134",
        "name": "Xiamen, China",
        "lat": 24.48,
        "lon": 118.08,
        "src": "BUFR"
    },
    {
        "stationid": "59211",
        "name": "Baise, China",
        "lat": 23.9,
        "lon": 106.6,
        "src": "BUFR"
    },
    {
        "stationid": "59265",
        "name": "Wuzhou, China",
        "lat": 23.48,
        "lon": 111.3,
        "src": "BUFR"
    },
    {
        "stationid": "59280",
        "name": "Qing Yuan, China",
        "lat": 23.72,
        "lon": 113.08,
        "src": "BUFR"
    },
    {
        "stationid": "59316",
        "name": "Shantou, China",
        "lat": 23.35,
        "lon": 116.67,
        "src": "BUFR"
    },
    {
        "stationid": "59431",
        "name": "Nanning, China",
        "lat": 22.78,
        "lon": 108.55,
        "src": "BUFR"
    },
    {
        "stationid": "59758",
        "name": "Haikou, China",
        "lat": 20.0,
        "lon": 110.25,
        "src": "BUFR"
    },
    {
        "stationid": "59981",
        "name": "Xisha Dao, China",
        "lat": 16.83,
        "lon": 112.33,
        "src": "BUFR"
    },
    {
        "stationid": "60155",
        "name": "Casablanca, Morocco",
        "lat": 33.54157,
        "lon": -7.67077,
        "src": "BUFR"
    },
    {
        "stationid": "60253",
        "name": "Taroudant, Morocco",
        "lat": 30.4987,
        "lon": -8.8288,
        "src": "BUFR"
    },
    {
        "stationid": "61980",
        "name": "Saint-Denis/Gillot, Oceania",
        "lat": -20.89671,
        "lon": 55.49493,
        "src": "BUFR"
    },
    {
        "stationid": "70261",
        "name": "Fairbanks/Int., Ak, United States Of America",
        "lat": 64.8163,
        "lon": -147.87631,
        "src": "BUFR"
    },
    {
        "stationid": "70273",
        "name": "Anchorage/Int., Ak, United States Of America",
        "lat": 61.15713,
        "lon": -149.98664,
        "src": "BUFR"
    },
    {
        "stationid": "70350",
        "name": "Kodiak, Ak, United States Of America",
        "lat": 57.7432,
        "lon": -152.48624,
        "src": "BUFR"
    },
    {
        "stationid": "71043",
        "name": "Norman Wells Ua,  Nwt, Canada",
        "lat": 65.28758,
        "lon": -126.75315,
        "src": "BUFR"
    },
    {
        "stationid": "71081",
        "name": "Hall Beach Ua, Nu., Canada",
        "lat": 68.76438,
        "lon": -81.22484,
        "src": "BUFR"
    },
    {
        "stationid": "71109",
        "name": "Port Hardy Ua, Bc, Canada",
        "lat": 50.68502,
        "lon": -127.37583,
        "src": "BUFR"
    },
    {
        "stationid": "71119",
        "name": "Edmonton Stony Plain, Canada",
        "lat": 53.55,
        "lon": -114.11,
        "src": "BUFR"
    },
    {
        "stationid": "71603",
        "name": "Yarmouth, Ns, Canada",
        "lat": 43.8717,
        "lon": -66.1072,
        "src": "BUFR"
    },
    {
        "stationid": "71722",
        "name": "Maniwaki, Que, Canada",
        "lat": 46.3017,
        "lon": -76.0064,
        "src": "BUFR"
    },
    {
        "stationid": "71802",
        "name": "Mt Pearl, Canada",
        "lat": 47.5136,
        "lon": -52.7828,
        "src": "BUFR"
    },
    {
        "stationid": "71811",
        "name": "Sept-Iles Ua, Que, Canada",
        "lat": 50.21859,
        "lon": -66.24119,
        "src": "BUFR"
    },
    {
        "stationid": "71816",
        "name": "Goose Bay, Nfld, Canada",
        "lat": 53.3064,
        "lon": -60.3633,
        "src": "BUFR"
    },
    {
        "stationid": "71845",
        "name": "Pickle Lake, Ont, Canada",
        "lat": 51.44852,
        "lon": -90.21783,
        "src": "BUFR"
    },
    {
        "stationid": "71867",
        "name": "The Pass Ua, Man, Canada",
        "lat": 53.9747,
        "lon": -101.0892,
        "src": "BUFR"
    },
    {
        "stationid": "71906",
        "name": "Kuujjuaq, Ua, Que, Canada",
        "lat": 58.1089,
        "lon": -68.4114,
        "src": "BUFR"
    },
    {
        "stationid": "71907",
        "name": "Inukjuak, Que, Canada",
        "lat": 58.4672,
        "lon": -78.0783,
        "src": "BUFR"
    },
    {
        "stationid": "71908",
        "name": "Prince George, Ua, Canada",
        "lat": 53.9,
        "lon": -122.79102,
        "src": "BUFR"
    },
    {
        "stationid": "71913",
        "name": "Churchill Ua, Man, Canada",
        "lat": 58.7392,
        "lon": -94.0586,
        "src": "BUFR"
    },
    {
        "stationid": "71924",
        "name": "Resolute Ua, Nwt, Canada",
        "lat": 74.70472,
        "lon": -94.96934,
        "src": "BUFR"
    },
    {
        "stationid": "71925",
        "name": "Cambridge Bay Ua, Nwt, Canada",
        "lat": 69.13,
        "lon": -105.06,
        "src": "BUFR"
    },
    {
        "stationid": "71926",
        "name": "Baker Lake Ua, Nwt, Canada",
        "lat": 64.32,
        "lon": -96.0,
        "src": "BUFR"
    },
    {
        "stationid": "71934",
        "name": "Fort Smith Ua,  Nwt, Canada",
        "lat": 60.0266,
        "lon": -111.92926,
        "src": "BUFR"
    },
    {
        "stationid": "71945",
        "name": "Fort Nelson Ua, Bc, Canada",
        "lat": 58.84148,
        "lon": -122.57293,
        "src": "BUFR"
    },
    {
        "stationid": "71957",
        "name": "Inuvik Ua, Nwt, Canada",
        "lat": 68.32,
        "lon": -133.53,
        "src": "BUFR"
    },
    {
        "stationid": "71964",
        "name": "Whitehorse, Ua, Yt, Canada",
        "lat": 60.7331,
        "lon": -135.0978,
        "src": "BUFR"
    },
    {
        "stationid": "72201",
        "name": "Key West/Int., Fl, United States Of America",
        "lat": 24.55306,
        "lon": -81.78861,
        "src": "BUFR"
    },
    {
        "stationid": "72202",
        "name": "Miami, Fl, United States Of America",
        "lat": 25.75547,
        "lon": -80.38355,
        "src": "BUFR"
    },
    {
        "stationid": "72206",
        "name": "Jacksonville/Intnl.,  Fl., United States Of America",
        "lat": 30.48332,
        "lon": -81.7011,
        "src": "BUFR"
    },
    {
        "stationid": "72208",
        "name": "Charleston/Mun., Sc., United States Of America",
        "lat": 32.89472,
        "lon": -80.02778,
        "src": "BUFR"
    },
    {
        "stationid": "72210",
        "name": "Tampa Bay Area, Fl., United States Of America",
        "lat": 27.70528,
        "lon": -82.40139,
        "src": "BUFR"
    },
    {
        "stationid": "72230",
        "name": "Birmingham, Al, United States Of America",
        "lat": 33.18,
        "lon": -86.78278,
        "src": "BUFR"
    },
    {
        "stationid": "72235",
        "name": "Jackson/Allen C. Thompson Field, Ms., United States Of America",
        "lat": 32.31998,
        "lon": -90.08031,
        "src": "BUFR"
    },
    {
        "stationid": "72240",
        "name": "Lake Charles/Mun.,  La., United States Of America",
        "lat": 30.12556,
        "lon": -93.2171,
        "src": "BUFR"
    },
    {
        "stationid": "72248",
        "name": "Shreveport/Reg., La., United States Of America",
        "lat": 32.45167,
        "lon": -93.84167,
        "src": "BUFR"
    },
    {
        "stationid": "72249",
        "name": "Fort Worth, Tx., United States Of America",
        "lat": 32.83522,
        "lon": -97.29794,
        "src": "BUFR"
    },
    {
        "stationid": "72251",
        "name": "Corpus Christi/Int.,  Tx., United States Of America",
        "lat": 27.77933,
        "lon": -97.50496,
        "src": "BUFR"
    },
    {
        "stationid": "72265",
        "name": "Midland/Midland Reg. Air Term., Tx., United States Of America",
        "lat": 31.94278,
        "lon": -102.18972,
        "src": "BUFR"
    },
    {
        "stationid": "72274",
        "name": "Tucson/Int., Az., United States Of America",
        "lat": 32.22796,
        "lon": -110.95607,
        "src": "BUFR"
    },
    {
        "stationid": "72293",
        "name": "San Diego/Miramar,  Nas, Ca., United States Of America",
        "lat": 32.84512,
        "lon": -117.12368,
        "src": "BUFR"
    },
    {
        "stationid": "72305",
        "name": "Newport, Nc., United States Of America",
        "lat": 34.77581,
        "lon": -76.87765,
        "src": "BUFR"
    },
    {
        "stationid": "72317",
        "name": "Greensboro/G.-High Pt., Nc., United States Of America",
        "lat": 36.09821,
        "lon": -79.94298,
        "src": "BUFR"
    },
    {
        "stationid": "72318",
        "name": "Blacksburg, Va., United States Of America",
        "lat": 37.20589,
        "lon": -80.41436,
        "src": "BUFR"
    },
    {
        "stationid": "72327",
        "name": "Nashville/Old Hickory, Tn., United States Of America",
        "lat": 36.24695,
        "lon": -86.56178,
        "src": "BUFR"
    },
    {
        "stationid": "72340",
        "name": "Little Rock/Adams Fld,  Ar., United States Of America",
        "lat": 34.83639,
        "lon": -92.25972,
        "src": "BUFR"
    },
    {
        "stationid": "72357",
        "name": "Norman/Max Westheimer A, Ok., United States Of America",
        "lat": 35.18095,
        "lon": -97.43787,
        "src": "BUFR"
    },
    {
        "stationid": "72363",
        "name": "Amarillo/Intl., Tx., United States Of America",
        "lat": 35.23253,
        "lon": -101.70874,
        "src": "BUFR"
    },
    {
        "stationid": "72364",
        "name": "Santa Teresa, Nm., United States Of America",
        "lat": 31.87268,
        "lon": -106.69709,
        "src": "BUFR"
    },
    {
        "stationid": "72365",
        "name": "Albuquerque/Int., Nm., United States Of America",
        "lat": 35.03806,
        "lon": -106.62278,
        "src": "BUFR"
    },
    {
        "stationid": "72376",
        "name": "Flagstaff, Az, United States Of America",
        "lat": 35.23057,
        "lon": -111.82019,
        "src": "BUFR"
    },
    {
        "stationid": "72388",
        "name": "Las Vegas, United States Of America",
        "lat": 36.04706,
        "lon": -115.1847,
        "src": "BUFR"
    },
    {
        "stationid": "72426",
        "name": "Wilmington, Oh., United States Of America",
        "lat": 39.42111,
        "lon": -83.82111,
        "src": "BUFR"
    },
    {
        "stationid": "72440",
        "name": "Springfield/Mun., Mo., United States Of America",
        "lat": 37.23583,
        "lon": -93.40216,
        "src": "BUFR"
    },
    {
        "stationid": "72456",
        "name": "Topeka/Mun., Ks., United States Of America",
        "lat": 39.07297,
        "lon": -95.62983,
        "src": "BUFR"
    },
    {
        "stationid": "72476",
        "name": "Grand Junction/Walker Field, Co., United States Of America",
        "lat": 39.11974,
        "lon": -108.52431,
        "src": "BUFR"
    },
    {
        "stationid": "72489",
        "name": "Reno, Nv., United States Of America",
        "lat": 39.5683,
        "lon": -119.79534,
        "src": "BUFR"
    },
    {
        "stationid": "72493",
        "name": "Oakland/Metrop. Oakland Int., Ca., United States Of America",
        "lat": 37.74448,
        "lon": -122.22356,
        "src": "BUFR"
    },
    {
        "stationid": "72501",
        "name": "Upton, Ny., United States Of America",
        "lat": 40.86513,
        "lon": -72.86286,
        "src": "BUFR"
    },
    {
        "stationid": "72528",
        "name": "Buffalo/Greater Buffalo Int., Ny., United States Of America",
        "lat": 42.94003,
        "lon": -78.72474,
        "src": "BUFR"
    },
    {
        "stationid": "72558",
        "name": "Valley, Ne., United States Of America",
        "lat": 41.31944,
        "lon": -96.38306,
        "src": "BUFR"
    },
    {
        "stationid": "72562",
        "name": "North Platte/Lee Bird, Ne., United States Of America",
        "lat": 41.13394,
        "lon": -100.69992,
        "src": "BUFR"
    },
    {
        "stationid": "72572",
        "name": "Salt Lake City/Intnl Ut., United States Of America",
        "lat": 40.77244,
        "lon": -111.9547,
        "src": "BUFR"
    },
    {
        "stationid": "72582",
        "name": "Elko, Nv., United States Of America",
        "lat": 40.86018,
        "lon": -115.74146,
        "src": "BUFR"
    },
    {
        "stationid": "72597",
        "name": "Medford/Medford-Jackson County, Or., United States Of America",
        "lat": 42.37687,
        "lon": -122.88212,
        "src": "BUFR"
    },
    {
        "stationid": "72632",
        "name": "White Lake, Mi., United States Of America",
        "lat": 42.69902,
        "lon": -83.4715,
        "src": "BUFR"
    },
    {
        "stationid": "72634",
        "name": "Gaylord, Mi., United States Of America",
        "lat": 44.90826,
        "lon": -84.71936,
        "src": "BUFR"
    },
    {
        "stationid": "72645",
        "name": "Green Bay/A.-Straubel, Wi., United States Of America",
        "lat": 44.49755,
        "lon": -88.11171,
        "src": "BUFR"
    },
    {
        "stationid": "72649",
        "name": "Chanhassen, Mn., United States Of America",
        "lat": 44.849,
        "lon": -93.56431,
        "src": "BUFR"
    },
    {
        "stationid": "72659",
        "name": "Aberdeen/Reg., Sd., United States Of America",
        "lat": 45.4545,
        "lon": -98.41416,
        "src": "BUFR"
    },
    {
        "stationid": "72662",
        "name": "Rapid City Wfo, Sd., United States Of America",
        "lat": 44.07301,
        "lon": -103.21027,
        "src": "BUFR"
    },
    {
        "stationid": "72672",
        "name": "Riverton, Wy., United States Of America",
        "lat": 43.06485,
        "lon": -108.47667,
        "src": "BUFR"
    },
    {
        "stationid": "72681",
        "name": "Boise/Mun., Id., United States Of America",
        "lat": 43.56775,
        "lon": -116.21092,
        "src": "BUFR"
    },
    {
        "stationid": "72712",
        "name": "Caribou/Mun., Me., United States Of America",
        "lat": 46.86812,
        "lon": -68.01354,
        "src": "BUFR"
    },
    {
        "stationid": "72764",
        "name": "Bismarck/Mun., Nd., United States Of America",
        "lat": 46.77166,
        "lon": -100.76158,
        "src": "BUFR"
    },
    {
        "stationid": "72768",
        "name": "Glasgow/Int., Mt., United States Of America",
        "lat": 48.20601,
        "lon": -106.62646,
        "src": "BUFR"
    },
    {
        "stationid": "72776",
        "name": "Great Falls, Mt., United States Of America",
        "lat": 47.46056,
        "lon": -111.38533,
        "src": "BUFR"
    },
    {
        "stationid": "72786",
        "name": "Spokane, Wa., United States Of America",
        "lat": 47.68159,
        "lon": -117.62662,
        "src": "BUFR"
    },
    {
        "stationid": "72797",
        "name": "Quillayute, Wa., United States Of America",
        "lat": 47.93477,
        "lon": -124.55945,
        "src": "BUFR"
    },
    {
        "stationid": "73033",
        "name": "Vernon, Canada",
        "lat": 50.27856,
        "lon": -119.27164,
        "src": "BUFR"
    },
    {
        "stationid": "73110",
        "name": "Shearwater, Canada",
        "lat": 44.6319,
        "lon": -63.5086,
        "src": "BUFR"
    },
    {
        "stationid": "74389",
        "name": "Gray, Me., United States Of America",
        "lat": 43.8925,
        "lon": -70.25722,
        "src": "BUFR"
    },
    {
        "stationid": "74455",
        "name": "Quad City, Ia., United States Of America",
        "lat": 41.61248,
        "lon": -90.57999,
        "src": "BUFR"
    },
    {
        "stationid": "74560",
        "name": "Lincoln, Il., United States Of America",
        "lat": 40.15111,
        "lon": -89.3375,
        "src": "BUFR"
    },
    {
        "stationid": "78397",
        "name": "Kingston/Norman Manley, Jamaica",
        "lat": 17.93902,
        "lon": -76.78085,
        "src": "BUFR"
    },
    {
        "stationid": "78583",
        "name": "Belize/Phillip Goldston Intl. Airport, Belize",
        "lat": 17.53422,
        "lon": -88.31283,
        "src": "BUFR"
    },
    {
        "stationid": "78897",
        "name": "Le Raizet, Guadeloupe, Guadeloupe, St Martin, St Barthelemy (And Other French Islands In The Vicinity",
        "lat": 16.26202,
        "lon": -61.52768,
        "src": "BUFR"
    },
    {
        "stationid": "78954",
        "name": "Grantley Adams, Barbados",
        "lat": 13.07167,
        "lon": -59.49194,
        "src": "BUFR"
    },
    {
        "stationid": "81405",
        "name": "Rochambeau, French Guiana",
        "lat": 4.82203,
        "lon": -52.36537,
        "src": "BUFR"
    },
    {
        "stationid": "89571",
        "name": "Davis, Stations Operated By Australia",
        "lat": -68.5752,
        "lon": 77.9659,
        "src": "BUFR"
    },
    {
        "stationid": "91212",
        "name": "Nwso Agana, Guam, Mariana Is., Islands In The Pacific Ocean North Of The Equator",
        "lat": 13.47761,
        "lon": 144.79381,
        "src": "BUFR"
    },
    {
        "stationid": "91285",
        "name": "Hilo, Hi, Islands In The Pacific Ocean North Of The Equator",
        "lat": 19.717,
        "lon": -155.04935,
        "src": "BUFR"
    },
    {
        "stationid": "91592",
        "name": "Noumea (Nlle-Caledonie), New Caledonia",
        "lat": -22.27567,
        "lon": 166.45267,
        "src": "BUFR"
    },
    {
        "stationid": "91925",
        "name": "Atuona, French Polynesia (Marquesas Islands)",
        "lat": -9.80589,
        "lon": -139.0356,
        "src": "BUFR"
    },
    {
        "stationid": "91938",
        "name": "Tahiti-Faaa, French Polynesia (Society Islands)",
        "lat": -17.55529,
        "lon": -149.61461,
        "src": "BUFR"
    },
    {
        "stationid": "91948",
        "name": "Rikitea, French Polynesia (Tuamotu Islands And Gambier Islands)",
        "lat": -23.1302,
        "lon": -134.965,
        "src": "BUFR"
    },
    {
        "stationid": "96413",
        "name": "Kuching, Malaysia (Sabah And Sarawak)",
        "lat": 1.49027,
        "lon": 110.35214,
        "src": "BUFR"
    },
    {
        "stationid": "96441",
        "name": "Bintulu, Malaysia (Sabah And Sarawak)",
        "lat": 3.12023,
        "lon": 113.02451,
        "src": "BUFR"
    },
    {
        "stationid": "96471",
        "name": "Kota Kinabalu, Malaysia (Sabah And Sarawak)",
        "lat": 5.93282,
        "lon": 116.04745,
        "src": "BUFR"
    },
    {
        "stationid": "71082",
        "name": "Alert Ua, Nu, Canada",
        "lat": 82.5,
        "lon": -62.33,
        "src": "BUFR"
    },
    {
        "stationid": "60760",
        "name": "Tozeur, Tunisia",
        "lat": 33.93522,
        "lon": 8.11101,
        "src": "BUFR"
    },
    {
        "stationid": "71917",
        "name": "Eureka Ua, Nwt, Canada",
        "lat": 79.98,
        "lon": -85.93,
        "src": "BUFR"
    },
    {
        "stationid": "11010",
        "name": "Linz/Hoersching-Flughafen, Austria",
        "lat": 48.23203,
        "lon": 14.20099,
        "src": "BUFR"
    },
    {
        "stationid": "11240",
        "name": "Graz-Thalerhof-Flughafen, Austria",
        "lat": 46.99396,
        "lon": 15.44706,
        "src": "BUFR"
    },
    {
        "stationid": "06458",
        "name": "",
        "lat": 50.75,
        "lon": 4.77,
        "src": "FM35"
    },
    {
        "stationid": "11952",
        "name": "Poprad-Ganovce, Slovakia",
        "lat": 49.03,
        "lon": 20.31,
        "src": "FM35"
    },
    {
        "stationid": "12374",
        "name": "Legionowo, Poland",
        "lat": 52.4,
        "lon": 20.96,
        "src": "FM35"
    },
    {
        "stationid": "12843",
        "name": "Budapest/Pestszentlorinc, Hungary",
        "lat": 47.43,
        "lon": 19.18,
        "src": "FM35"
    },
    {
        "stationid": "12982",
        "name": "Szeged, Hungary",
        "lat": 46.25,
        "lon": 20.1,
        "src": "FM35"
    },
    {
        "stationid": "13388",
        "name": "Nis, Serbia",
        "lat": 43.33,
        "lon": 21.9,
        "src": "FM35"
    },
    {
        "stationid": "14430",
        "name": "Zadar Rs, Croatia",
        "lat": 44.1,
        "lon": 15.34,
        "src": "FM35"
    },
    {
        "stationid": "15420",
        "name": "Bucuresti Inmh-Banesa, Romania",
        "lat": 44.5,
        "lon": 26.13,
        "src": "FM35"
    },
    {
        "stationid": "16064",
        "name": "Novara Cameri, Italy",
        "lat": 45.53,
        "lon": 8.67,
        "src": "FM35"
    },
    {
        "stationid": "16245",
        "name": "Pratica Di Mare, Italy",
        "lat": 41.65,
        "lon": 12.43,
        "src": "FM35"
    },
    {
        "stationid": "16429",
        "name": "Trapani/Birgi, Italy",
        "lat": 37.91,
        "lon": 12.5,
        "src": "FM35"
    },
    {
        "stationid": "16622",
        "name": "Thessaloniki (Airport), Greece",
        "lat": 40.51,
        "lon": 22.96,
        "src": "FM35"
    },
    {
        "stationid": "17030",
        "name": "Samsun, Turkey",
        "lat": 41.28,
        "lon": 36.3,
        "src": "FM35"
    },
    {
        "stationid": "17064",
        "name": "Istanbul/Kartal, Turkey",
        "lat": 40.91,
        "lon": 29.16,
        "src": "FM35"
    },
    {
        "stationid": "17095",
        "name": "Erzurum Bolge, Turkey",
        "lat": 39.91,
        "lon": 41.25,
        "src": "FM35"
    },
    {
        "stationid": "17130",
        "name": "Ankara/Central, Turkey",
        "lat": 39.97,
        "lon": 32.86,
        "src": "FM35"
    },
    {
        "stationid": "17196",
        "name": "Kayseri, Turkey",
        "lat": 38.69,
        "lon": 35.5,
        "src": "FM35"
    },
    {
        "stationid": "17220",
        "name": "Izmir/Guzelyali, Turkey",
        "lat": 38.39,
        "lon": 27.08,
        "src": "FM35"
    },
    {
        "stationid": "17240",
        "name": "Isparta, Turkey",
        "lat": 37.78,
        "lon": 30.57,
        "src": "FM35"
    },
    {
        "stationid": "17281",
        "name": "Diyarbakir-Bolge, Turkey",
        "lat": 37.91,
        "lon": 40.21,
        "src": "FM35"
    },
    {
        "stationid": "17351",
        "name": "Adana/Bolge, Turkey",
        "lat": 37.0,
        "lon": 35.34,
        "src": "FM35"
    },
    {
        "stationid": "20046",
        "name": "Polargmo Im. E.T. Krenkelja, Russian Federation (In Asia)",
        "lat": 80.61,
        "lon": 58.05,
        "src": "FM35"
    },
    {
        "stationid": "20674",
        "name": "Ostrov Dikson, Russian Federation (In Asia)",
        "lat": 73.5,
        "lon": 80.4,
        "src": "FM35"
    },
    {
        "stationid": "20744",
        "name": "Malye Karmakuly, Russian Federation (In Asia)",
        "lat": 72.36,
        "lon": 52.7,
        "src": "FM35"
    },
    {
        "stationid": "21432",
        "name": "Ostrov Kotel'Nyj, Russian Federation (In Asia)",
        "lat": 76.0,
        "lon": 137.86,
        "src": "FM35"
    },
    {
        "stationid": "21824",
        "name": "Tiksi, Russian Federation (In Asia)",
        "lat": 71.58,
        "lon": 128.91,
        "src": "FM35"
    },
    {
        "stationid": "21946",
        "name": "Chokurdah, Russian Federation (In Asia)",
        "lat": 70.61,
        "lon": 147.88,
        "src": "FM35"
    },
    {
        "stationid": "22008",
        "name": "Murmansk, Russia",
        "lat": 68.99,
        "lon": 33.13,
        "src": "FM35"
    },
    {
        "stationid": "22217",
        "name": "Kandalaksha, Russian Federation (In Europe)",
        "lat": 67.15,
        "lon": 32.35,
        "src": "FM35"
    },
    {
        "stationid": "22271",
        "name": "Shojna, Russian Federation (In Europe)",
        "lat": 67.88,
        "lon": 44.13,
        "src": "FM35"
    },
    {
        "stationid": "22522",
        "name": "Kem', Russian Federation (In Europe)",
        "lat": 64.95,
        "lon": 34.65,
        "src": "FM35"
    },
    {
        "stationid": "22543",
        "name": "Maymaksa, Russia",
        "lat": 64.62,
        "lon": 40.51,
        "src": "FM35"
    },
    {
        "stationid": "22820",
        "name": "Petrozavodsk, Russian Federation (In Europe)",
        "lat": 61.81,
        "lon": 34.26,
        "src": "FM35"
    },
    {
        "stationid": "22845",
        "name": "Kargopol', Russian Federation (In Europe)",
        "lat": 61.5,
        "lon": 38.93,
        "src": "FM35"
    },
    {
        "stationid": "23078",
        "name": "Norilsk, Russia",
        "lat": 69.32,
        "lon": 88.22,
        "src": "FM35"
    },
    {
        "stationid": "23205",
        "name": "Nar'Jan-Mar, Russian Federation (In Asia)",
        "lat": 67.63,
        "lon": 53.03,
        "src": "FM35"
    },
    {
        "stationid": "23330",
        "name": "Salehard, Russian Federation (In Asia)",
        "lat": 66.53,
        "lon": 66.66,
        "src": "FM35"
    },
    {
        "stationid": "23415",
        "name": "Pechora, Russia",
        "lat": 65.12,
        "lon": 57.13,
        "src": "FM35"
    },
    {
        "stationid": "23472",
        "name": "Turuhansk, Russian Federation (In Asia)",
        "lat": 65.78,
        "lon": 87.93,
        "src": "FM35"
    },
    {
        "stationid": "23802",
        "name": "Syktyvkar, Russia",
        "lat": 61.68,
        "lon": 50.79,
        "src": "FM35"
    },
    {
        "stationid": "23884",
        "name": "Bor, Russian Federation (In Asia)",
        "lat": 61.6,
        "lon": 90.01,
        "src": "FM35"
    },
    {
        "stationid": "23921",
        "name": "Ivdel', Russian Federation (In Asia)",
        "lat": 60.68,
        "lon": 60.45,
        "src": "FM35"
    },
    {
        "stationid": "23933",
        "name": "Hanty-Mansijsk, Russian Federation (In Asia)",
        "lat": 61.01,
        "lon": 69.03,
        "src": "FM35"
    },
    {
        "stationid": "23955",
        "name": "Aleksandrovskoe, Russian Federation (In Asia)",
        "lat": 60.43,
        "lon": 77.86,
        "src": "FM35"
    },
    {
        "stationid": "24122",
        "name": "Olenek, Russia",
        "lat": 68.5,
        "lon": 112.43,
        "src": "FM35"
    },
    {
        "stationid": "24266",
        "name": "Verhojansk, Russian Federation (In Asia)",
        "lat": 67.56,
        "lon": 133.4,
        "src": "FM35"
    },
    {
        "stationid": "24343",
        "name": "Zhigansk, Russian Federation (In Asia)",
        "lat": 66.76,
        "lon": 123.4,
        "src": "FM35"
    },
    {
        "stationid": "24507",
        "name": "Tura, Russian Federation (In Asia)",
        "lat": 64.26,
        "lon": 100.23,
        "src": "FM35"
    },
    {
        "stationid": "24641",
        "name": "Viljujsk, Russian Federation (In Asia)",
        "lat": 63.76,
        "lon": 121.61,
        "src": "FM35"
    },
    {
        "stationid": "24688",
        "name": "Ojmjakon, Russian Federation (In Asia)",
        "lat": 63.25,
        "lon": 143.15,
        "src": "FM35"
    },
    {
        "stationid": "24726",
        "name": "Mirnvy, Russian Federation (In Asia)",
        "lat": 62.53,
        "lon": 113.86,
        "src": "FM35"
    },
    {
        "stationid": "24908",
        "name": "Vanavara, Russian Federation (In Asia)",
        "lat": 60.33,
        "lon": 102.26,
        "src": "FM35"
    },
    {
        "stationid": "24947",
        "name": "Olekminsk, Russia",
        "lat": 60.37,
        "lon": 120.42,
        "src": "FM35"
    },
    {
        "stationid": "24959",
        "name": "Jakutsk, Russian Federation (In Asia)",
        "lat": 62.01,
        "lon": 129.71,
        "src": "FM35"
    },
    {
        "stationid": "25123",
        "name": "Cherskij, Russian Federation (In Asia)",
        "lat": 68.75,
        "lon": 161.28,
        "src": "FM35"
    },
    {
        "stationid": "25403",
        "name": "Zyrjanka, Russia",
        "lat": 65.72,
        "lon": 150.9,
        "src": "FM35"
    },
    {
        "stationid": "25703",
        "name": "Sejmchan, Russian Federation (In Asia)",
        "lat": 62.91,
        "lon": 152.41,
        "src": "FM35"
    },
    {
        "stationid": "25913",
        "name": "Magadan, Russian Federation (In Asia)",
        "lat": 59.55,
        "lon": 150.78,
        "src": "FM35"
    },
    {
        "stationid": "26038",
        "name": "Tallinn, Estonia",
        "lat": 59.38,
        "lon": 24.58,
        "src": "FM35"
    },
    {
        "stationid": "26075",
        "name": "St Petersburg/Voejkovo, Russia",
        "lat": 59.95,
        "lon": 30.7,
        "src": "FM35"
    },
    {
        "stationid": "26298",
        "name": "Bologoe, Russian Federation (In Europe)",
        "lat": 57.9,
        "lon": 34.05,
        "src": "FM35"
    },
    {
        "stationid": "26477",
        "name": "Velikie Luki, Russian Federation (In Europe)",
        "lat": 56.35,
        "lon": 30.61,
        "src": "FM35"
    },
    {
        "stationid": "26629",
        "name": "Kaunas, Lithuania",
        "lat": 54.88,
        "lon": 23.88,
        "src": "FM35"
    },
    {
        "stationid": "26708",
        "name": "Kaliningrad, Russia",
        "lat": 54.7,
        "lon": 20.77,
        "src": "FM35"
    },
    {
        "stationid": "26781",
        "name": "Smolensk, Russian Federation (In Europe)",
        "lat": 54.75,
        "lon": 32.06,
        "src": "FM35"
    },
    {
        "stationid": "27038",
        "name": "Vologda, Russia",
        "lat": 59.32,
        "lon": 39.93,
        "src": "FM35"
    },
    {
        "stationid": "27199",
        "name": "Kirov, Russian Federation (In Europe)",
        "lat": 58.6,
        "lon": 49.63,
        "src": "FM35"
    },
    {
        "stationid": "27459",
        "name": "Nizhnij Novgorod, Russian Federation (In Europe)",
        "lat": 56.26,
        "lon": 44.0,
        "src": "FM35"
    },
    {
        "stationid": "27594",
        "name": "Kolkhoznaya Ulitsa, Russia",
        "lat": 55.81,
        "lon": 48.51,
        "src": "FM35"
    },
    {
        "stationid": "27713",
        "name": "Moskva/Dolgoprudny, Russia",
        "lat": 55.93,
        "lon": 37.52,
        "src": "FM35"
    },
    {
        "stationid": "27707",
        "name": "Suhinichi, Russian Federation (In Europe)",
        "lat": 54.1,
        "lon": 35.35,
        "src": "FM35"
    },
    {
        "stationid": "27730",
        "name": "Ryazan', Russian Federation (In Europe)",
        "lat": 54.63,
        "lon": 39.7,
        "src": "FM35"
    },
    {
        "stationid": "27962",
        "name": "Penza, Russian Federation (In Europe)",
        "lat": 53.11,
        "lon": 45.01,
        "src": "FM35"
    },
    {
        "stationid": "27995",
        "name": "Samara (Bezenchuk), Russian Federation (In Europe)",
        "lat": 52.98,
        "lon": 49.43,
        "src": "FM35"
    },
    {
        "stationid": "28225",
        "name": "Perm', Russian Federation (In Asia)",
        "lat": 57.95,
        "lon": 56.2,
        "src": "FM35"
    },
    {
        "stationid": "28275",
        "name": "Tobol'Sk, Russian Federation (In Asia)",
        "lat": 58.15,
        "lon": 68.25,
        "src": "FM35"
    },
    {
        "stationid": "28445",
        "name": "Verhnee Dubrovo, Russian Federation (In Asia)",
        "lat": 56.73,
        "lon": 61.06,
        "src": "FM35"
    },
    {
        "stationid": "28661",
        "name": "Kurgan, Russian Federation (In Asia)",
        "lat": 55.46,
        "lon": 65.4,
        "src": "FM35"
    },
    {
        "stationid": "28695",
        "name": "Omsk, Russia",
        "lat": 54.93,
        "lon": 73.4,
        "src": "FM35"
    },
    {
        "stationid": "28722",
        "name": "Ufa-Dioma, Russian Federation (In Asia)",
        "lat": 54.71,
        "lon": 55.83,
        "src": "FM35"
    },
    {
        "stationid": "28951",
        "name": "Kostanai, Kazakhstan",
        "lat": 53.23,
        "lon": 63.62,
        "src": "FM35"
    },
    {
        "stationid": "29263",
        "name": "Enisejsk, Russian Federation (In Asia)",
        "lat": 58.45,
        "lon": 92.15,
        "src": "FM35"
    },
    {
        "stationid": "29282",
        "name": "Bogucany, Russian Federation (In Asia)",
        "lat": 58.38,
        "lon": 97.45,
        "src": "FM35"
    },
    {
        "stationid": "29572",
        "name": "Emel'Janovo, Russian Federation (In Asia)",
        "lat": 56.18,
        "lon": 92.61,
        "src": "FM35"
    },
    {
        "stationid": "29612",
        "name": "Barabinsk, Russian Federation (In Asia)",
        "lat": 55.33,
        "lon": 78.36,
        "src": "FM35"
    },
    {
        "stationid": "29634",
        "name": "Novosibirsk, Russian Federation (In Asia)",
        "lat": 54.96,
        "lon": 82.95,
        "src": "FM35"
    },
    {
        "stationid": "29698",
        "name": "Nizhneudinsk, Russian Federation (In Asia)",
        "lat": 54.88,
        "lon": 99.03,
        "src": "FM35"
    },
    {
        "stationid": "29862",
        "name": "Hakasskaja, Russian Federation (In Asia)",
        "lat": 53.76,
        "lon": 91.31,
        "src": "FM35"
    },
    {
        "stationid": "30054",
        "name": "Vitim, Russian Federation (In Asia)",
        "lat": 59.45,
        "lon": 112.58,
        "src": "FM35"
    },
    {
        "stationid": "30230",
        "name": "Kirensk, Russian Federation (In Asia)",
        "lat": 57.76,
        "lon": 108.06,
        "src": "FM35"
    },
    {
        "stationid": "30309",
        "name": "Bratsk, Russian Federation (In Asia)",
        "lat": 56.28,
        "lon": 101.75,
        "src": "FM35"
    },
    {
        "stationid": "30557",
        "name": "Bagdarin, Russia",
        "lat": 54.47,
        "lon": 113.58,
        "src": "FM35"
    },
    {
        "stationid": "30635",
        "name": "Ust'-Barguzin, Russian Federation (In Asia)",
        "lat": 53.41,
        "lon": 109.01,
        "src": "FM35"
    },
    {
        "stationid": "30673",
        "name": "Mogoca, Russian Federation (In Asia)",
        "lat": 53.75,
        "lon": 119.73,
        "src": "FM35"
    },
    {
        "stationid": "30715",
        "name": "Angarsk, Russian Federation (In Asia)",
        "lat": 52.48,
        "lon": 103.85,
        "src": "FM35"
    },
    {
        "stationid": "30758",
        "name": "Chita, Russian Federation (In Asia)",
        "lat": 52.08,
        "lon": 113.48,
        "src": "FM35"
    },
    {
        "stationid": "30935",
        "name": "Krasnyj Chikoj, Russian Federation (In Asia)",
        "lat": 50.36,
        "lon": 108.75,
        "src": "FM35"
    },
    {
        "stationid": "30965",
        "name": "Borzya, Russian Federation (In Asia)",
        "lat": 50.4,
        "lon": 116.51,
        "src": "FM35"
    },
    {
        "stationid": "31004",
        "name": "Aldan, Russian Federation (In Asia)",
        "lat": 58.61,
        "lon": 125.36,
        "src": "FM35"
    },
    {
        "stationid": "31088",
        "name": "Ohotsk, Russian Federation (In Asia)",
        "lat": 59.36,
        "lon": 143.2,
        "src": "FM35"
    },
    {
        "stationid": "31510",
        "name": "Blagovescensk, Russian Federation (In Asia)",
        "lat": 50.53,
        "lon": 127.5,
        "src": "FM35"
    },
    {
        "stationid": "31770",
        "name": "Sovetskay Gavan, Russia",
        "lat": 49.0,
        "lon": 140.27,
        "src": "FM35"
    },
    {
        "stationid": "31873",
        "name": "Dal'Nerechensk, Russian Federation (In Asia)",
        "lat": 45.86,
        "lon": 133.73,
        "src": "FM35"
    },
    {
        "stationid": "31977",
        "name": "Vladivostok (Sad Gorod), Russian Federation (In Asia)",
        "lat": 43.26,
        "lon": 132.05,
        "src": "FM35"
    },
    {
        "stationid": "32061",
        "name": "Aleksandrovsk-Sahalinskij, Russian Federation (In Asia)",
        "lat": 50.9,
        "lon": 142.16,
        "src": "FM35"
    },
    {
        "stationid": "32098",
        "name": "Poronajsk, Russian Federation (In Asia)",
        "lat": 49.22,
        "lon": 143.1,
        "src": "FM35"
    },
    {
        "stationid": "32150",
        "name": "Juzhno-Sahalinsk, Russian Federation (In Asia)",
        "lat": 46.95,
        "lon": 142.71,
        "src": "FM35"
    },
    {
        "stationid": "32215",
        "name": "Severo-Kuril'Sk, Russian Federation (In Asia)",
        "lat": 50.68,
        "lon": 156.13,
        "src": "FM35"
    },
    {
        "stationid": "32389",
        "name": "Kljuchi, Russian Federation (In Asia)",
        "lat": 56.31,
        "lon": 160.83,
        "src": "FM35"
    },
    {
        "stationid": "32477",
        "name": "Sobolevo, Russia",
        "lat": 54.3,
        "lon": 155.97,
        "src": "FM35"
    },
    {
        "stationid": "32540",
        "name": "Petropavlovsk-Kamchatskij, Russian Federation (In Asia)",
        "lat": 53.08,
        "lon": 158.58,
        "src": "FM35"
    },
    {
        "stationid": "32618",
        "name": "Ostrov Beringa, Russian Federation (In Asia)",
        "lat": 55.2,
        "lon": 165.98,
        "src": "FM35"
    },
    {
        "stationid": "34122",
        "name": "Voronez, Russian Federation (In Europe)",
        "lat": 51.65,
        "lon": 39.25,
        "src": "FM35"
    },
    {
        "stationid": "34172",
        "name": "Saratov, Russian Federation (In Europe)",
        "lat": 51.56,
        "lon": 46.03,
        "src": "FM35"
    },
    {
        "stationid": "34247",
        "name": "Kalac, Russian Federation (In Europe)",
        "lat": 50.41,
        "lon": 41.05,
        "src": "FM35"
    },
    {
        "stationid": "34467",
        "name": "Volgograd, Russian Federation (In Asia)",
        "lat": 48.68,
        "lon": 44.35,
        "src": "FM35"
    },
    {
        "stationid": "34858",
        "name": "Divnoe, Russian Federation (In Europe)",
        "lat": 45.91,
        "lon": 43.35,
        "src": "FM35"
    },
    {
        "stationid": "34882",
        "name": "Astrakhan, Russia",
        "lat": 46.27,
        "lon": 48.03,
        "src": "FM35"
    },
    {
        "stationid": "35121",
        "name": "Orenburg, Russian Federation (In Asia)",
        "lat": 51.68,
        "lon": 55.1,
        "src": "FM35"
    },
    {
        "stationid": "35229",
        "name": "Aktobe, Kazakhstan",
        "lat": 50.28,
        "lon": 57.15,
        "src": "FM35"
    },
    {
        "stationid": "35394",
        "name": "Karaganda, Kazakhstan",
        "lat": 49.8,
        "lon": 73.15,
        "src": "FM35"
    },
    {
        "stationid": "35671",
        "name": "Zhezkazgan, Kazakhstan",
        "lat": 47.8,
        "lon": 67.71,
        "src": "FM35"
    },
    {
        "stationid": "35700",
        "name": "Atyrau, Kazakhstan",
        "lat": 47.11,
        "lon": 51.91,
        "src": "FM35"
    },
    {
        "stationid": "36003",
        "name": "Pavlodar, Kazakhstan",
        "lat": 52.3,
        "lon": 76.93,
        "src": "FM35"
    },
    {
        "stationid": "36096",
        "name": "Kyzyl, Russia",
        "lat": 51.71,
        "lon": 94.5,
        "src": "FM35"
    },
    {
        "stationid": "36872",
        "name": "Almaty, Russia",
        "lat": 43.36,
        "lon": 77.0,
        "src": "FM35"
    },
    {
        "stationid": "37011",
        "name": "Tuapse, Russia",
        "lat": 44.1,
        "lon": 39.07,
        "src": "FM35"
    },
    {
        "stationid": "37259",
        "name": "Mahachkala, Russia",
        "lat": 43.01,
        "lon": 47.48,
        "src": "FM35"
    },
    {
        "stationid": "38064",
        "name": "Kyzylorda, Kazakhstan",
        "lat": 44.77,
        "lon": 65.52,
        "src": "FM35"
    },
    {
        "stationid": "38341",
        "name": "Zhambyl, Kazakhstan",
        "lat": 42.85,
        "lon": 71.38,
        "src": "FM35"
    },
    {
        "stationid": "40373",
        "name": "Al-Qaisumah, Saudi Arabia",
        "lat": 28.31,
        "lon": 46.13,
        "src": "FM35"
    },
    {
        "stationid": "40375",
        "name": "Tabuk, Saudi Arabia",
        "lat": 28.38,
        "lon": 36.6,
        "src": "FM35"
    },
    {
        "stationid": "40394",
        "name": "Hail, Saudi Arabia",
        "lat": 27.43,
        "lon": 41.68,
        "src": "FM35"
    },
    {
        "stationid": "40417",
        "name": "K.F.I.A. (King Fahad Int. Airport) Dammam, Saudi Arabia",
        "lat": 26.45,
        "lon": 49.81,
        "src": "FM35"
    },
    {
        "stationid": "40430",
        "name": "Al-Madinah, Saudi Arabia",
        "lat": 24.55,
        "lon": 39.7,
        "src": "FM35"
    },
    {
        "stationid": "40437",
        "name": "King Khaled Int. Airport, Saudi Arabia",
        "lat": 24.93,
        "lon": 46.71,
        "src": "FM35"
    },
    {
        "stationid": "40745",
        "name": "Mashhad, Iran, Islamic Republic Of",
        "lat": 36.26,
        "lon": 59.63,
        "src": "FM35"
    },
    {
        "stationid": "40754",
        "name": "Tehran-Mehrabad, Iran, Islamic Republic Of",
        "lat": 35.68,
        "lon": 51.35,
        "src": "FM35"
    },
    {
        "stationid": "40766",
        "name": "Kermanshah, Iran, Islamic Republic Of",
        "lat": 34.26,
        "lon": 47.11,
        "src": "FM35"
    },
    {
        "stationid": "40800",
        "name": "Esfahan, Iran, Islamic Republic Of",
        "lat": 32.46,
        "lon": 51.71,
        "src": "FM35"
    },
    {
        "stationid": "40848",
        "name": "Shiraz, Iran, Islamic Republic Of",
        "lat": 29.53,
        "lon": 52.58,
        "src": "FM35"
    },
    {
        "stationid": "40856",
        "name": "Zahedan, Iran, Islamic Republic Of",
        "lat": 29.46,
        "lon": 60.88,
        "src": "FM35"
    },
    {
        "stationid": "41024",
        "name": "Jeddah (King Abdul Aziz Int. Airport), Saudi Arabia",
        "lat": 21.7,
        "lon": 39.18,
        "src": "FM35"
    },
    {
        "stationid": "41112",
        "name": "Abha, Saudi Arabia",
        "lat": 18.23,
        "lon": 42.65,
        "src": "FM35"
    },
    {
        "stationid": "41169",
        "name": "",
        "lat": 25.27,
        "lon": 51.6,
        "src": "FM35"
    },
    {
        "stationid": "41217",
        "name": "Abu Dhabi Inter. Airport, United Arab Emirates",
        "lat": 24.43,
        "lon": 54.65,
        "src": "FM35"
    },
    {
        "stationid": "41316",
        "name": "Salalah, Oman",
        "lat": 17.03,
        "lon": 54.08,
        "src": "FM35"
    },
    {
        "stationid": "41883",
        "name": "Bogra, Bangladesh",
        "lat": 24.85,
        "lon": 89.36,
        "src": "FM35"
    },
    {
        "stationid": "41891",
        "name": "Sylhet, Bangladesh",
        "lat": 24.9,
        "lon": 91.88,
        "src": "FM35"
    },
    {
        "stationid": "41923",
        "name": "Dhaka, Bangladesh",
        "lat": 23.76,
        "lon": 90.38,
        "src": "FM35"
    },
    {
        "stationid": "41977",
        "name": "Chittagong (Ambagan), Bangladesh",
        "lat": 22.35,
        "lon": 91.81,
        "src": "FM35"
    },
    {
        "stationid": "42027",
        "name": "Srinagar, India (Stations North Of Latitude 20~N)",
        "lat": 34.08,
        "lon": 74.83,
        "src": "FM35"
    },
    {
        "stationid": "42101",
        "name": "Patiala, India (Stations North Of Latitude 20~N)",
        "lat": 30.33,
        "lon": 76.46,
        "src": "FM35"
    },
    {
        "stationid": "42111",
        "name": "Dehradun, India (Stations North Of Latitude 20~N)",
        "lat": 30.31,
        "lon": 78.03,
        "src": "FM35"
    },
    {
        "stationid": "42182",
        "name": "New Delhi/Safdarjung, India (Stations North Of Latitude 20~N)",
        "lat": 28.58,
        "lon": 77.2,
        "src": "FM35"
    },
    {
        "stationid": "42339",
        "name": "Jodhpur, India (Stations North Of Latitude 20~N)",
        "lat": 26.3,
        "lon": 73.01,
        "src": "FM35"
    },
    {
        "stationid": "42361",
        "name": "Gwalior, India (Stations North Of Latitude 20~N)",
        "lat": 26.23,
        "lon": 78.25,
        "src": "FM35"
    },
    {
        "stationid": "42369",
        "name": "Lucknow/Amausi, India (Stations North Of Latitude 20~N)",
        "lat": 26.75,
        "lon": 80.88,
        "src": "FM35"
    },
    {
        "stationid": "42379",
        "name": "Gorakhpur, India (Stations North Of Latitude 20~N)",
        "lat": 26.75,
        "lon": 83.36,
        "src": "FM35"
    },
    {
        "stationid": "42492",
        "name": "Patna, India (Stations North Of Latitude 20~N)",
        "lat": 25.6,
        "lon": 85.1,
        "src": "FM35"
    },
    {
        "stationid": "42647",
        "name": "Ahmadabad, India (Stations North Of Latitude 20~N)",
        "lat": 23.06,
        "lon": 72.63,
        "src": "FM35"
    },
    {
        "stationid": "42667",
        "name": "Bhopal/Bairagarh, India (Stations North Of Latitude 20~N)",
        "lat": 23.28,
        "lon": 77.35,
        "src": "FM35"
    },
    {
        "stationid": "42675",
        "name": "Jabalpur, India (Stations North Of Latitude 20~N)",
        "lat": 23.2,
        "lon": 79.95,
        "src": "FM35"
    },
    {
        "stationid": "42701",
        "name": "M.O. Ranchi, India (Stations North Of Latitude 20~N)",
        "lat": 23.31,
        "lon": 85.31,
        "src": "FM35"
    },
    {
        "stationid": "42724",
        "name": "Agartala, India (Stations North Of Latitude 20~N)",
        "lat": 23.88,
        "lon": 91.25,
        "src": "FM35"
    },
    {
        "stationid": "42809",
        "name": "Calcutta/Dum Dum, India (Stations North Of Latitude 20~N)",
        "lat": 22.65,
        "lon": 88.45,
        "src": "FM35"
    },
    {
        "stationid": "42867",
        "name": "Nagpur Sonegaon, India (Stations North Of Latitude 20~N)",
        "lat": 21.1,
        "lon": 79.05,
        "src": "FM35"
    },
    {
        "stationid": "42874",
        "name": "Pbo Raipur, India (Stations North Of Latitude 20~N)",
        "lat": 21.23,
        "lon": 81.65,
        "src": "FM35"
    },
    {
        "stationid": "42886",
        "name": "Jharsuguda, India (Stations North Of Latitude 20~N)",
        "lat": 21.91,
        "lon": 84.08,
        "src": "FM35"
    },
    {
        "stationid": "43041",
        "name": "Jagdalpur, India (Stations South Of Latitude 20~N)",
        "lat": 19.08,
        "lon": 82.03,
        "src": "FM35"
    },
    {
        "stationid": "43049",
        "name": "Gopalpur, India (Stations South Of Latitude 20~N)",
        "lat": 19.26,
        "lon": 84.88,
        "src": "FM35"
    },
    {
        "stationid": "43063",
        "name": "Poona, India (Stations South Of Latitude 20~N)",
        "lat": 18.53,
        "lon": 73.85,
        "src": "FM35"
    },
    {
        "stationid": "43086",
        "name": "Ramgundam, India",
        "lat": 18.78,
        "lon": 79.44,
        "src": "FM35"
    },
    {
        "stationid": "43128",
        "name": "Hyderabad Airport, India (Stations South Of Latitude 20~N)",
        "lat": 17.45,
        "lon": 78.46,
        "src": "FM35"
    },
    {
        "stationid": "43279",
        "name": "Madras/Minambakkam, India (Stations South Of Latitude 20~N)",
        "lat": 13.0,
        "lon": 80.18,
        "src": "FM35"
    },
    {
        "stationid": "43285",
        "name": "Mangalore/Panambur, India (Stations South Of Latitude 20~N)",
        "lat": 12.95,
        "lon": 74.83,
        "src": "FM35"
    },
    {
        "stationid": "43295",
        "name": "Bangalore, India (Stations South Of Latitude 20~N)",
        "lat": 12.96,
        "lon": 77.58,
        "src": "FM35"
    },
    {
        "stationid": "43311",
        "name": "M.O. Amini, India (Stations South Of Latitude 20~N)",
        "lat": 11.12,
        "lon": 72.73,
        "src": "FM35"
    },
    {
        "stationid": "43346",
        "name": "Karaikal, India (Stations South Of Latitude 20~N)",
        "lat": 10.91,
        "lon": 79.83,
        "src": "FM35"
    },
    {
        "stationid": "43353",
        "name": "Cochin/Willingdon, India (Stations South Of Latitude 20~N)",
        "lat": 9.95,
        "lon": 76.26,
        "src": "FM35"
    },
    {
        "stationid": "44231",
        "name": "Muren, Mongolia",
        "lat": 49.56,
        "lon": 100.16,
        "src": "FM35"
    },
    {
        "stationid": "44292",
        "name": "Ulaanbaatar, Mongolia",
        "lat": 47.55,
        "lon": 106.52,
        "src": "FM35"
    },
    {
        "stationid": "44373",
        "name": "Dalanzadgad, Mongolia",
        "lat": 43.58,
        "lon": 104.42,
        "src": "FM35"
    },
    {
        "stationid": "47122",
        "name": "Osan Ab, Republic Of Korea",
        "lat": 37.1,
        "lon": 127.03,
        "src": "FM35"
    },
    {
        "stationid": "47158",
        "name": "Gwangju Ab, Republic Of Korea",
        "lat": 35.11,
        "lon": 126.81,
        "src": "FM35"
    },
    {
        "stationid": "47401",
        "name": "Wakkanai, Japan",
        "lat": 45.41,
        "lon": 141.68,
        "src": "FM35"
    },
    {
        "stationid": "47412",
        "name": "Sapporo, Japan",
        "lat": 43.05,
        "lon": 141.33,
        "src": "FM35"
    },
    {
        "stationid": "47582",
        "name": "Akita, Japan",
        "lat": 39.71,
        "lon": 140.1,
        "src": "FM35"
    },
    {
        "stationid": "47600",
        "name": "Wajima, Japan",
        "lat": 37.38,
        "lon": 136.9,
        "src": "FM35"
    },
    {
        "stationid": "47646",
        "name": "Tateno, Japan",
        "lat": 36.05,
        "lon": 140.13,
        "src": "FM35"
    },
    {
        "stationid": "47678",
        "name": "Hachijojima/Omure, Japan",
        "lat": 33.11,
        "lon": 139.78,
        "src": "FM35"
    },
    {
        "stationid": "47778",
        "name": "Shionomisaki, Japan",
        "lat": 33.45,
        "lon": 135.76,
        "src": "FM35"
    },
    {
        "stationid": "47807",
        "name": "Fukuoka, Japan",
        "lat": 33.58,
        "lon": 130.38,
        "src": "FM35"
    },
    {
        "stationid": "47827",
        "name": "Kagoshima, Japan",
        "lat": 31.55,
        "lon": 130.55,
        "src": "FM35"
    },
    {
        "stationid": "47909",
        "name": "Naze/Funchatoge, Japan",
        "lat": 28.38,
        "lon": 129.55,
        "src": "FM35"
    },
    {
        "stationid": "47918",
        "name": "Ishigakijima, Japan",
        "lat": 24.33,
        "lon": 124.16,
        "src": "FM35"
    },
    {
        "stationid": "47945",
        "name": "Minamidaitojima, Japan",
        "lat": 25.83,
        "lon": 131.23,
        "src": "FM35"
    },
    {
        "stationid": "47971",
        "name": "Chichijima, Japan",
        "lat": 27.08,
        "lon": 142.18,
        "src": "FM35"
    },
    {
        "stationid": "47991",
        "name": "Minamitorishima, Japan",
        "lat": 24.3,
        "lon": 153.96,
        "src": "FM35"
    },
    {
        "stationid": "48327",
        "name": "Chiang Mai, Thailand",
        "lat": 18.78,
        "lon": 98.98,
        "src": "FM35"
    },
    {
        "stationid": "48407",
        "name": "Ubon Ratchathani, Thailand",
        "lat": 15.25,
        "lon": 104.86,
        "src": "FM35"
    },
    {
        "stationid": "48568",
        "name": "Songkhla, Thailand",
        "lat": 7.2,
        "lon": 100.6,
        "src": "FM35"
    },
    {
        "stationid": "48601",
        "name": "Penang/Bayan Lepas, Malaysia (Peninsular Malaysia)",
        "lat": 5.3,
        "lon": 100.26,
        "src": "FM35"
    },
    {
        "stationid": "48615",
        "name": "Kota Bharu, Malaysia (Peninsular Malaysia)",
        "lat": 6.16,
        "lon": 102.28,
        "src": "FM35"
    },
    {
        "stationid": "48650",
        "name": "Sepang, Malaysia (Peninsular Malaysia)",
        "lat": 2.71,
        "lon": 101.7,
        "src": "FM35"
    },
    {
        "stationid": "48811",
        "name": "Dien Bien Phu, Vietnam",
        "lat": 21.37,
        "lon": 103.0,
        "src": "FM35"
    },
    {
        "stationid": "48820",
        "name": "Ha Noi, Vietnam",
        "lat": 21.01,
        "lon": 105.8,
        "src": "FM35"
    },
    {
        "stationid": "48839",
        "name": "Bach Longvi, Vietnam",
        "lat": 20.13,
        "lon": 107.72,
        "src": "FM35"
    },
    {
        "stationid": "48845",
        "name": "Vinh, Vietnam",
        "lat": 18.67,
        "lon": 105.68,
        "src": "FM35"
    },
    {
        "stationid": "48855",
        "name": "Da Nang, Vietnam",
        "lat": 16.03,
        "lon": 108.2,
        "src": "FM35"
    },
    {
        "stationid": "48900",
        "name": "Tan Son Hoa, Vietnam",
        "lat": 10.81,
        "lon": 106.66,
        "src": "FM35"
    },
    {
        "stationid": "60018",
        "name": "Tenerife-Guimar, Spain (Canary Islands)",
        "lat": 28.47,
        "lon": -16.38,
        "src": "FM35"
    },
    {
        "stationid": "60390",
        "name": "Dar-El-Beida, Algeria",
        "lat": 36.68,
        "lon": 3.21,
        "src": "FM35"
    },
    {
        "stationid": "60571",
        "name": "Bechar, Algeria",
        "lat": 31.5,
        "lon": -2.25,
        "src": "FM35"
    },
    {
        "stationid": "60680",
        "name": "Tamanrasset, Algeria",
        "lat": 22.78,
        "lon": 5.52,
        "src": "FM35"
    },
    {
        "stationid": "61052",
        "name": "Niamey-Aero, Niger",
        "lat": 13.48,
        "lon": 2.16,
        "src": "FM35"
    },
    {
        "stationid": "61291",
        "name": "Bamako/Senou, Mali",
        "lat": 12.53,
        "lon": -7.95,
        "src": "FM35"
    },
    {
        "stationid": "62306",
        "name": "Mersa Matruh, Egypt",
        "lat": 31.33,
        "lon": 27.21,
        "src": "FM35"
    },
    {
        "stationid": "62378",
        "name": "Helwan, Egypt",
        "lat": 29.86,
        "lon": 31.33,
        "src": "FM35"
    },
    {
        "stationid": "63741",
        "name": "Nairobi/Dagoretti, Kenya",
        "lat": -1.3,
        "lon": 36.75,
        "src": "FM35"
    },
    {
        "stationid": "65578",
        "name": "Abidjan, Cote D'Ivoire",
        "lat": 5.25,
        "lon": -3.93,
        "src": "FM35"
    },
    {
        "stationid": "67083",
        "name": "Antananarivo/Ivato, Madagascar",
        "lat": -18.8,
        "lon": 47.48,
        "src": "FM35"
    },
    {
        "stationid": "68263",
        "name": "Pretoria (Irene), South Africa",
        "lat": -25.91,
        "lon": 28.21,
        "src": "FM35"
    },
    {
        "stationid": "68424",
        "name": "Upington, South Africa",
        "lat": -28.41,
        "lon": 21.26,
        "src": "FM35"
    },
    {
        "stationid": "68816",
        "name": "Cape Town Intnl. Airport, South Africa",
        "lat": -33.96,
        "lon": 18.6,
        "src": "FM35"
    },
    {
        "stationid": "68842",
        "name": "Port Elizabeth, South Africa",
        "lat": -33.98,
        "lon": 25.61,
        "src": "FM35"
    },
    {
        "stationid": "70414",
        "name": "Shemya Afb, United States Of America",
        "lat": 52.71,
        "lon": 174.1,
        "src": "FM35"
    },
    {
        "stationid": "71815",
        "name": "Stephenville Ua, Nfld, Canada",
        "lat": 48.56,
        "lon": -58.56,
        "src": "FM35"
    },
    {
        "stationid": "72233",
        "name": "Slidell/Mun. La, United States Of America",
        "lat": 30.34,
        "lon": -89.83,
        "src": "FM35"
    },
    {
        "stationid": "72250",
        "name": "Brownsville/Int., Tx, United States Of America",
        "lat": 25.91,
        "lon": -97.41,
        "src": "FM35"
    },
    {
        "stationid": "72393",
        "name": "Vandenberg Afb, Ca., United States Of America",
        "lat": 34.75,
        "lon": -120.56,
        "src": "FM35"
    },
    {
        "stationid": "72402",
        "name": "Wallops Island, Va., United States Of America",
        "lat": 37.93,
        "lon": -75.47,
        "src": "FM35"
    },
    {
        "stationid": "72403",
        "name": "Sterling, Va., United States Of America",
        "lat": 38.98,
        "lon": -77.46,
        "src": "FM35"
    },
    {
        "stationid": "72451",
        "name": "Dodge City/Mun., Ks., United States Of America",
        "lat": 37.76,
        "lon": -99.97,
        "src": "FM35"
    },
    {
        "stationid": "72520",
        "name": "Pittsburgh/Moon Township, Pa., United States Of America",
        "lat": 40.53,
        "lon": -80.22,
        "src": "FM35"
    },
    {
        "stationid": "72747",
        "name": "Int.Falls/Falls Int. Mn., United States Of America",
        "lat": 48.56,
        "lon": -93.4,
        "src": "FM35"
    },
    {
        "stationid": "74646",
        "name": "Lamont, Ok., United States Of America",
        "lat": 36.62,
        "lon": -97.48,
        "src": "FM35"
    },
    {
        "stationid": "74794",
        "name": "Cape Kennedy, Fl., United States Of America",
        "lat": 28.46,
        "lon": -80.55,
        "src": "FM35"
    },
    {
        "stationid": "76225",
        "name": "Chihuahua, Chih., Mexico",
        "lat": 28.67,
        "lon": -106.02,
        "src": "FM35"
    },
    {
        "stationid": "76256",
        "name": "Empalme, Son., Mexico",
        "lat": 27.95,
        "lon": -110.75,
        "src": "FM35"
    },
    {
        "stationid": "76405",
        "name": "La Paz, Bcs, Mexico",
        "lat": 24.17,
        "lon": -110.3,
        "src": "FM35"
    },
    {
        "stationid": "76458",
        "name": "Colonia Juan Carrasco Mazatlan, Sin., Mexico",
        "lat": 23.2,
        "lon": -106.42,
        "src": "FM35"
    },
    {
        "stationid": "76526",
        "name": "Zacatecas,Zac., Mexico",
        "lat": 22.75,
        "lon": -102.5,
        "src": "FM35"
    },
    {
        "stationid": "76595",
        "name": "Cancun, Mexico",
        "lat": 21.02,
        "lon": -86.85,
        "src": "FM35"
    },
    {
        "stationid": "76612",
        "name": "Guadalajara, Jal., Mexico",
        "lat": 20.67,
        "lon": -103.38,
        "src": "FM35"
    },
    {
        "stationid": "76644",
        "name": "Aerop.Internacional Merida, Yuc, Mexico",
        "lat": 20.98,
        "lon": -89.65,
        "src": "FM35"
    },
    {
        "stationid": "76654",
        "name": "Manzanillo, Col., Mexico",
        "lat": 19.05,
        "lon": -104.32,
        "src": "FM35"
    },
    {
        "stationid": "76679",
        "name": "Aerop. Internacional Mexico, D.F., Mexico",
        "lat": 19.4,
        "lon": -99.2,
        "src": "FM35"
    },
    {
        "stationid": "76692",
        "name": "Hacienda Ylang Ylang Veracruz, Ver., Mexico",
        "lat": 19.15,
        "lon": -96.12,
        "src": "FM35"
    },
    {
        "stationid": "76805",
        "name": "Acapulco, Gro., Mexico",
        "lat": 16.75,
        "lon": -99.75,
        "src": "FM35"
    },
    {
        "stationid": "78486",
        "name": "Santo Domingo, Dominican Republic",
        "lat": 18.43,
        "lon": -69.88,
        "src": "FM35"
    },
    {
        "stationid": "78526",
        "name": "San Juan/Int.,  Puerto Rico, Puerto Rico And Us Possessions In The Caribbean Area",
        "lat": 18.43,
        "lon": -65.99,
        "src": "FM35"
    },
    {
        "stationid": "78866",
        "name": "Juliana Airport,  St. Maarten, Curacao, St Maarten And/Et Aruba",
        "lat": 18.05,
        "lon": -63.12,
        "src": "FM35"
    },
    {
        "stationid": "82022",
        "name": "Boa Vista, Brazil",
        "lat": 2.83,
        "lon": -60.7,
        "src": "FM35"
    },
    {
        "stationid": "82099",
        "name": "Macapa A/P, Brazil",
        "lat": 0.05,
        "lon": -51.07,
        "src": "FM35"
    },
    {
        "stationid": "82026",
        "name": "Tirios, Brazil",
        "lat": 2.48,
        "lon": -55.98,
        "src": "FM35"
    },
    {
        "stationid": "82107",
        "name": "San Garbriel Da Cachoeira, Brazil",
        "lat": -1.3,
        "lon": -67.05,
        "src": "FM35"
    },
    {
        "stationid": "82193",
        "name": "Belem (Aeroporto), Brazil",
        "lat": -1.38,
        "lon": -48.48,
        "src": "FM35"
    },
    {
        "stationid": "82244",
        "name": "Santarem-Aeroporto, Brazil",
        "lat": -2.43,
        "lon": -54.72,
        "src": "FM35"
    },
    {
        "stationid": "82332",
        "name": "Manaus (Aeroporto), Brazil",
        "lat": -3.15,
        "lon": -59.98,
        "src": "FM35"
    },
    {
        "stationid": "82400",
        "name": "Fernando De Noronha, Brazil",
        "lat": -3.85,
        "lon": -32.41,
        "src": "FM35"
    },
    {
        "stationid": "82411",
        "name": "Tabatinga, Brazil",
        "lat": -3.67,
        "lon": -69.67,
        "src": "FM35"
    },
    {
        "stationid": "82532",
        "name": "Manicore , Brazil",
        "lat": -5.82,
        "lon": -61.28,
        "src": "FM35"
    },
    {
        "stationid": "82599",
        "name": "Natal Aeroporto, Brazil",
        "lat": -5.91,
        "lon": -35.25,
        "src": "FM35"
    },
    {
        "stationid": "82705",
        "name": "Cruzerio Do Sul, Brazil",
        "lat": -7.62,
        "lon": -72.67,
        "src": "FM35"
    },
    {
        "stationid": "82824",
        "name": "Porto Velho (Aeroporto), Brazil",
        "lat": -8.76,
        "lon": -63.91,
        "src": "FM35"
    },
    {
        "stationid": "82917",
        "name": "Rio Branco, Brazil",
        "lat": -10.0,
        "lon": -67.8,
        "src": "FM35"
    },
    {
        "stationid": "82965",
        "name": "Alta Floresta (Aeroporto), Brazil",
        "lat": -9.86,
        "lon": -56.1,
        "src": "FM35"
    },
    {
        "stationid": "83208",
        "name": "Vilhena (Aeroporto), Brazil",
        "lat": -12.7,
        "lon": -60.1,
        "src": "FM35"
    },
    {
        "stationid": "83362",
        "name": "Cuiaba (Aeroporto), Brazil",
        "lat": -15.65,
        "lon": -56.1,
        "src": "FM35"
    },
    {
        "stationid": "83378",
        "name": "Brasilia (Aeroporto), Brazil",
        "lat": -15.86,
        "lon": -47.93,
        "src": "FM35"
    },
    {
        "stationid": "83525",
        "name": "Uberlandia, Brazil",
        "lat": -18.87,
        "lon": -48.22,
        "src": "FM35"
    },
    {
        "stationid": "83554",
        "name": "Corumba (Aeroporto), Brazil",
        "lat": -19.0,
        "lon": -57.67,
        "src": "FM35"
    },
    {
        "stationid": "83566",
        "name": "Belo Horizonte(Confins), Brazil",
        "lat": -19.62,
        "lon": -43.57,
        "src": "FM35"
    },
    {
        "stationid": "83612",
        "name": "Campo Grande (Aeroporto), Brazil",
        "lat": -20.46,
        "lon": -54.66,
        "src": "FM35"
    },
    {
        "stationid": "83649",
        "name": "Vitoria, Brazil",
        "lat": -20.27,
        "lon": -40.28,
        "src": "FM35"
    },
    {
        "stationid": "83746",
        "name": "Galeao, Brazil",
        "lat": -22.81,
        "lon": -43.25,
        "src": "FM35"
    },
    {
        "stationid": "83768",
        "name": "Londrina (Aeroporto), Brazil",
        "lat": -23.33,
        "lon": -51.13,
        "src": "FM35"
    },
    {
        "stationid": "83779",
        "name": "Marte Civ/Mil, Brazil",
        "lat": -23.52,
        "lon": -46.63,
        "src": "FM35"
    },
    {
        "stationid": "83827",
        "name": "Foz Do Iguacu (Aeroporto), Brazil",
        "lat": -25.51,
        "lon": -54.58,
        "src": "FM35"
    },
    {
        "stationid": "83840",
        "name": "Curitiba (Aeroporto), Brazil",
        "lat": -25.51,
        "lon": -49.16,
        "src": "FM35"
    },
    {
        "stationid": "83899",
        "name": "Florianpolis (Aeroporto), Brazil",
        "lat": -27.67,
        "lon": -48.55,
        "src": "FM35"
    },
    {
        "stationid": "83937",
        "name": "Santa Maria (Aeroporto), Brazil",
        "lat": -29.72,
        "lon": -53.7,
        "src": "FM35"
    },
    {
        "stationid": "83971",
        "name": "Porto Alegre (Aeroporto), Brazil",
        "lat": -30.0,
        "lon": -51.18,
        "src": "FM35"
    },
    {
        "stationid": "85586",
        "name": "Santo Domingo, Chile",
        "lat": -33.65,
        "lon": -71.61,
        "src": "FM35"
    },
    {
        "stationid": "88889",
        "name": "Mount Pleasant Airport, Islands",
        "lat": -51.81,
        "lon": -58.45,
        "src": "FM35"
    },
    {
        "stationid": "89009",
        "name": "Amundsen-Scott, Stations Operated By The U.S.A.",
        "lat": -78,
        "lon": 0.0,
        "src": "FM35"
    },
    {
        "stationid": "89512",
        "name": "Novolazarevskaja, Stations Operated By The Russian Federation",
        "lat": -70.76,
        "lon": 11.83,
        "src": "FM35"
    },
    {
        "stationid": "89532",
        "name": "Syowa, Stations Operated By Japan",
        "lat": -69.0,
        "lon": 39.58,
        "src": "FM35"
    },
    {
        "stationid": "89592",
        "name": "Mirnyj, Stations Operated By The Russian Federation",
        "lat": -66.55,
        "lon": 93.01,
        "src": "FM35"
    },
    {
        "stationid": "89664",
        "name": "Mcmurdo, Stations Operated By The U.S.A.",
        "lat": -77.85,
        "lon": 166.66,
        "src": "FM35"
    },
    {
        "stationid": "91165",
        "name": "Lihue, Kauai, Hawaii, Islands In The Pacific Ocean North Of The Equator",
        "lat": 21.99,
        "lon": -159.34,
        "src": "FM35"
    },
    {
        "stationid": "91334",
        "name": "Chuuk, Eci, Islands In The Pacific Ocean North Of The Equator",
        "lat": 7.46,
        "lon": 151.84,
        "src": "FM35"
    },
    {
        "stationid": "91348",
        "name": "Pohnpei, Caroline Is., Islands In The Pacific Ocean North Of The Equator",
        "lat": 6.96,
        "lon": 158.21,
        "src": "FM35"
    },
    {
        "stationid": "91376",
        "name": "Majuro/Marshall Is. Intnl., Islands In The Pacific Ocean North Of The Equator",
        "lat": 7.07,
        "lon": 171.29,
        "src": "FM35"
    },
    {
        "stationid": "91408",
        "name": "Koror, Palau Wci., Islands In The Pacific Ocean North Of The Equator",
        "lat": 7.37,
        "lon": 134.54,
        "src": "FM35"
    },
    {
        "stationid": "91413",
        "name": "Yap, Caroline Is., Islands In The Pacific Ocean North Of The Equator",
        "lat": 9.5,
        "lon": 138.08,
        "src": "FM35"
    },
    {
        "stationid": "91610",
        "name": "Tarawa, Kiribati",
        "lat": 1.35,
        "lon": 172.91,
        "src": "FM35"
    },
    {
        "stationid": "91643",
        "name": "Funafuti, Tuvalu",
        "lat": -8.51,
        "lon": 179.21,
        "src": "FM35"
    },
    {
        "stationid": "91765",
        "name": "Pago Pago/Int.Airp., American Samoa",
        "lat": -14.33,
        "lon": -170.71,
        "src": "FM35"
    },
    {
        "stationid": "96011",
        "name": "Banda Aceh/Blang Bintang, Indonesia",
        "lat": 5.51,
        "lon": 95.41,
        "src": "FM35"
    },
    {
        "stationid": "96035",
        "name": "Medan/Polonia, Indonesia",
        "lat": 3.56,
        "lon": 98.68,
        "src": "FM35"
    },
    {
        "stationid": "96147",
        "name": "Ranai, Indonesia",
        "lat": 3.95,
        "lon": 108.38,
        "src": "FM35"
    },
    {
        "stationid": "96163",
        "name": "Padang/Tabing, Indonesia",
        "lat": -0.88,
        "lon": 100.35,
        "src": "FM35"
    },
    {
        "stationid": "96237",
        "name": "Pangkal Pinang, Indonesia",
        "lat": -2.16,
        "lon": 106.13,
        "src": "FM35"
    },
    {
        "stationid": "96253",
        "name": "Bengkulu/Padang Kemiling, Indonesia",
        "lat": -3.88,
        "lon": 102.33,
        "src": "FM35"
    },
    {
        "stationid": "96315",
        "name": "Brunei Airport, Brunei Darussalam",
        "lat": 4.93,
        "lon": 114.93,
        "src": "FM35"
    },
    {
        "stationid": "96481",
        "name": "Tawau, Malaysia (Sabah And Sarawak)",
        "lat": 4.26,
        "lon": 117.88,
        "src": "FM35"
    },
    {
        "stationid": "96509",
        "name": "Tarakan/Juwata, Indonesia",
        "lat": 3.33,
        "lon": 117.56,
        "src": "FM35"
    },
    {
        "stationid": "96581",
        "name": "Pontianak/Supadio, Indonesia",
        "lat": -0.15,
        "lon": 109.4,
        "src": "FM35"
    },
    {
        "stationid": "96633",
        "name": "Balikpapan/Sepinggan, Indonesia",
        "lat": -1.26,
        "lon": 116.9,
        "src": "FM35"
    },
    {
        "stationid": "96645",
        "name": "Pangkalan Bun/Iskandar, Indonesia",
        "lat": -2.7,
        "lon": 112.7,
        "src": "FM35"
    },
    {
        "stationid": "96685",
        "name": "Banjarmasin/Syamsudin Noor, Indonesia",
        "lat": -3.43,
        "lon": 114.75,
        "src": "FM35"
    },